{"status": "OK", "html_attributions": [], "results": [{"name": "Cr\u00e9dit Agricole", "reference": "CnRjAAAA54HRVz4Zk4wcVwNCtdXGpxwrU0z5ylIIOx6E7FCrJcweAVa-4DwZDWkXNSDTRf-WGuDwf5UvmMAW1zo20q7SZsD43We16D6UrONuBNOq4tEordzNU-jPXb0g6Wj5VndjOFvSJr67cT4AkzIGNCt9zxIQh3TPkGY1BEfLEtsIhTa0kRoUkKMWAhcUeVBzG8u_XCHfSbYXoE4", "geometry": {"location": {"lat": 33.9055577, "lng": -5.5322358}, "viewport": {"northeast": {"lat": 33.90649114999999, "lng": -5.531056499999999}, "southwest": {"lat": 33.90524654999999, "lng": -5.5326289}}}, "place_id": "ChIJOS2KcuVEoA0Rw-agsjBFsWg", "vicinity": "Boulevard Brahim Roudani, Mekn\u00e8s", "scope": "GOOGLE", "id": "1b435f0ebb05bfe0b650e99331b28d449449908b", "types": ["bank", "finance", "point_of_interest", "establishment"], "icon": "https://maps.gstatic.com/mapfiles/place_api/icons/bank_dollar-71.png"}, {"name": "Association Al Amana", "reference": "CnRnAAAANceTiagXjPrQpOZEbPa4pSLuN7Sfgo36sTJ-delUNr_HLDf79m5YH7ksSIYOXtNCRMXyQX6pujz5bBzgt1J33VWa8LHmcYh_eSniu6J1CjXfkIR6dtl2YMa4t3Nmgc9QvGvCQRwO-C4CpFgKUXKIHBIQo4OsgiGZthSP0gwbtdshyxoUlFkaT7SUJAU_ZDaUCOgvHFCSe3A", "geometry": {"location": {"lat": 33.8978282, "lng": -5.5311924}}, "place_id": "ChIJFT9a2-JEoA0RG71i9wJtrTQ", "vicinity": "al amana", "scope": "GOOGLE", "id": "1f2b5c527c48ed6fe80c7cfade9f931a72609ca6", "types": ["bank", "finance", "point_of_interest", "establishment"], "icon": "https://maps.gstatic.com/mapfiles/place_api/icons/bank_dollar-71.png"}, {"name": "bank Credit Populaire", "reference": "CnRoAAAAt5IW_5UpEJj_njL68TSgwTPk_chXTYEdt4LVW9lDmL2_Zqyf93Rsv8p1pYQMnggTbWLY2y1Me5dzaU3wl0dNqECnhJ6pV4m21GkaySF6uZVWM35-ps8I6lpe7qKj8FusOFOzVvONJudTrsfFwJgnYhIQ9o6kxi-g3Eo618wZDVpbMxoUMsRQKGy-tAi8VtqHIsIwjc9C-c4", "geometry": {"location": {"lat": 33.8936944, "lng": -5.563212}}, "place_id": "ChIJc-1SZtVaoA0RXTx5Su3U6R4", "vicinity": "Dar Kebira, Meknes", "scope": "GOOGLE", "id": "e9d4c3e2264c1aa743508dacc68543f530d1807b", "types": ["bank", "finance", "point_of_interest", "establishment"], "icon": "https://maps.gstatic.com/mapfiles/place_api/icons/bank_dollar-71.png"}, {"name": "Bank Populaire", "reference": "CnRiAAAAgi4evM-4rzQtmDQu4W4NF7EjWXc97M_wioDYv-yLtROjlU71bHntu491bVHtd0kgcQeYmRy5AV-g91_kX_BzxCSPOk1-D0qrihRUs3bS7V481Ni0BIv-gGloMLFX6hiUM5M2iOesfKYdrO5ajgn_4xIQD_jYtuRhIoyUA5mfO9RktBoULt41PFlX61kGY4GqUKSGiUkI6N8", "geometry": {"location": {"lat": 33.8937963, "lng": -5.5684379}}, "place_id": "ChIJ06fFJtZaoA0RRDl4i2fzu8s", "vicinity": "Berrima, Meknes", "scope": "GOOGLE", "id": "558a0aa5f6585fe6fbbf74e327ce87082d60a504", "types": ["bank", "finance", "point_of_interest", "establishment"], "icon": "https://maps.gstatic.com/mapfiles/place_api/icons/bank_dollar-71.png"}, {"name": "Attijariwafa bank", "reference": "CnRkAAAAg1egRdJYxJWV62eEFcxkXorDvv8JSV8xR1Fke96MbzKpZ4ZjGg4m5jkc6f4_JGY8hbs1GB0AlqnvfVY1we8g0Bc7jRkUok5yyrjYlCiwwhonxGxBS3ENuo1nCMK6zFYjJL39EqfE3K-lgbb0n8yl5BIQiWzrVgwDb1-3IZ9j7bi8DhoUiw_kxEyO06EIVU6JizNeuGKzxaI", "geometry": {"location": {"lat": 33.8936092, "lng": -5.567938700000001}, "viewport": {"northeast": {"lat": 33.8936416, "lng": -5.567907899999998}, "southwest": {"lat": 33.8935428, "lng": -5.5680019}}}, "place_id": "ChIJj0PnG9ZaoA0R22D_galosE0", "vicinity": "\u0634\u0627\u0631\u0639 \u0627\u0644\u0633\u0643\u0627\u0643\u064a\u0646, Meknes", "scope": "GOOGLE", "id": "7577472348009d526f5323d62c70f5a99daab8c6", "types": ["bank", "finance", "point_of_interest", "establishment"], "icon": "https://maps.gstatic.com/mapfiles/place_api/icons/bank_dollar-71.png"}, {"name": "Soci\u00e9t\u00e9 G\u00e9n\u00e9rale", "reference": "CnRnAAAAYRqTQlWwbDhWO6J9pM6wRYonQmkGO7gs_cMOhjjKF25RaUdFfPeoi9ksDFibBhp4Ct68WamOmPrFt2pi2UO2qAHTgL6xVZkjDCALtMQFcd9heATjCYtx9qU0T2yhQ1kBkjYhGcsoIklc5bEDlJ781BIQNfIfjFx8IELyRskasQVjnBoU8StbAkVUD29ujI-hzJJqc6Xinig", "geometry": {"location": {"lat": 33.8939299, "lng": -5.5692342}, "viewport": {"northeast": {"lat": 33.89398145000001, "lng": -5.569090350000001}, "southwest": {"lat": 33.89377525, "lng": -5.56928215}}}, "place_id": "ChIJr9DzKdZaoA0RKzQNfzM62Q4", "vicinity": "\u0634\u0627\u0631\u0639 \u0627\u0644\u0645\u0644\u0627\u062d, Meknes", "scope": "GOOGLE", "id": "36b5c0845d30be1e61bc7a9e8895b0696c4ba6f1", "types": ["bank", "finance", "point_of_interest", "establishment"], "icon": "https://maps.gstatic.com/mapfiles/place_api/icons/bank_dollar-71.png"}, {"name": "Cr\u00e9dit du Maroc", "reference": "CnRkAAAA65DOmdCNvrWq4d7kzkf5X9s2ttQ3jyrYqmJWWUv5SC3-k2yzDEa2617wD37ZxFd7I7lYg11NsjQwtYluZOWb2viUbKErENS4v7t2G-8w5a2sdkr3HTLiMPHKPjoYPJFXWAu5DKjdLZam_QxOYRKFsBIQyj5KJ97z8zLb9gn3pA2ozBoUjWwUcaew3Cn0KocDcTHkjgiB_TU", "geometry": {"location": {"lat": 33.8933688, "lng": -5.570127400000001}, "viewport": {"northeast": {"lat": 33.8934114, "lng": -5.570025699999999}, "southwest": {"lat": 33.89324100000001, "lng": -5.570161300000001}}}, "place_id": "ChIJxbJP0NdaoA0R28bYzUAz8o4", "vicinity": "\u0634\u0627\u0631\u0639 \u0627\u0644\u0645\u0644\u0627\u062d, Meknes", "scope": "GOOGLE", "id": "585e38659ae85d5f916ed6d44613ff8d32034b14", "types": ["bank", "finance", "point_of_interest", "establishment"], "icon": "https://maps.gstatic.com/mapfiles/place_api/icons/bank_dollar-71.png"}, {"name": "ATTIJARIWAFA BANK RIAD", "reference": "CnRpAAAA5ahuJz9EKaxJpNB688gCj50DpfRq85DB3gZo_pDipik2r2hlmHmJO-aFdO_Z_Wzfer6NBP_msNKXOx9VD7lQX2XBd3LgNARoMbgWVM9aDCY8f0oesPVfyBqpYNpd1txJpO1C3kyI3xd5eb_VK1FThRIQP0pXD8kFV6wmWCser_UznxoUwdGJsWpgFFSvRpcysBg8LX1f5V0", "geometry": {"location": {"lat": 33.8848208, "lng": -5.5699581}}, "place_id": "ChIJmzhzTtBaoA0RIuTmqvIhf2o", "vicinity": "Meknes", "scope": "GOOGLE", "id": "13a4d08d6a55de271674365f39d495f99f0af29e", "types": ["bank", "finance", "point_of_interest", "establishment"], "icon": "https://maps.gstatic.com/mapfiles/place_api/icons/bank_dollar-71.png"}, {"name": "attadamoune \u0627\u0644\u062a\u0645\u0648\u064a\u0644 \u0627\u0644\u0627\u0635\u063a\u0631", "reference": "CoQBegAAAPBo_zdpmjayNp0TsstuAXVb-pjDIgPPzt8Brqul5B2MwPiQh_zqpFKI7FK-bKCCyFUVtKjgvz9lAg-YvNOkUbikXWXSXV7vDouf9qCsGjyBx2PY_-zEBtM_6-oKiKKsZh-wu1y7NJ-nHXzfVuBOBYzqkbl7tu5Z490LdsmvPOf2EhD0y_uzVgcFt0nbhU8NJqCHGhQAxHzcRswjsm0H4jtHEZJ70mid_Q", "geometry": {"location": {"lat": 33.90051760000001, "lng": -5.5767015}}, "opening_hours": {"weekday_text": [], "open_now": true}, "place_id": "ChIJIS3dEiRboA0RAJKXBz9rzjk", "vicinity": "\u0632\u0646\u0642\u0629 20 \u0631\u0642\u0645 565 \u0645\u0643\u0631\u0631 \u0648\u062c\u0647 \u0639\u0631\u0648\u0633 (\u0627\u0645\u0627\u0645 \u0627\u0644\u0645\u0631\u0643\u0632 \u0627\u0644\u062a\u062c\u0627\u0631\u064a \u0628\u064a\u0645), 27 R718, Mekn\u00e8s", "scope": "GOOGLE", "id": "7137f7ca33e997d2aab493f4db7a785f3a6384a8", "types": ["bank", "finance", "point_of_interest", "establishment"], "icon": "https://maps.gstatic.com/mapfiles/place_api/icons/bank_dollar-71.png"}, {"name": "Banque populaire", "reference": "CnRkAAAAXdwnNAUtiarws0DvMHY3l1WM0IVbDKehof7QTLN_CFUSFM9NW8vJTAf8Cn8gnPVZwhAPm746d9tu-dyVLPbjYV220IHiDcEGD6MI-EX12SS7MLTJZkwuz4nvdEh_SJWM26sgdSMeJjjPfhzUi6OCHBIQMF6ryA_0KYsyijgynRVCHRoU2XtV--HmWEezykq3uyxAMQpe81Q", "geometry": {"location": {"lat": 33.8786708, "lng": -5.5620083}, "viewport": {"northeast": {"lat": 33.8787671, "lng": -5.561866699999999}, "southwest": {"lat": 33.8786387, "lng": -5.5620555}}}, "place_id": "ChIJGUcItMxaoA0RFqLkdmggHb8", "vicinity": "\u0634\u0627\u0631\u0639 \u0639\u0628\u062f \u0627\u0644\u0643\u0631\u064a\u0645 \u0627\u0644\u062e\u0637\u0627\u0628\u064a, Meknes", "scope": "GOOGLE", "id": "80f667869ee629e6bb9066c12d23cdac3eefc6a5", "types": ["bank", "finance", "point_of_interest", "establishment"], "icon": "https://maps.gstatic.com/mapfiles/place_api/icons/bank_dollar-71.png"}, {"name": "Banque populaire \u0627\u0644\u0628\u0646\u0643 \u0627\u0644\u0634\u0639\u0628\u064a", "reference": "CoQBfAAAADknBnCfPft8mzSzpdXTuKVUWhX73uEDoTlwOEzlDuOM75V4zq_cKYJLrCPjiaHt1U4Q8di4ARpLg4AzL3pdP-Vyte3D8XdZgHFXp421-19GlZvfZA43SVIZRpoSrjaMrNXvqf6eZpRdgCPsLdGixgkjDjxUx-3YjYJ4g2oL5RzPEhDsrdKiUjGV_bvAfWh1r-PpGhTIByNVFCaQYYBzxKnB2hK7KZnnmg", "geometry": {"location": {"lat": 33.891874, "lng": -5.5759984}}, "place_id": "ChIJXXR26dhaoA0R3k6lFQZUMsg", "vicinity": "Meknes", "scope": "GOOGLE", "id": "1ac23545755c9d9df3b069df7df046599248b149", "types": ["bank", "finance", "point_of_interest", "establishment"], "icon": "https://maps.gstatic.com/mapfiles/place_api/icons/bank_dollar-71.png"}, {"name": "Wafacash", "reference": "CmRbAAAAGtKExZSQdWeGH9Jx1Qv9bxcwOv6RX9Ev69ohTN6RMhvYUMfJWuCuIviAp4RGys56rtGJW8sX1OYNZ40uMXg7SFvND6eQZPJSSJwWyI0-3UiK-950cYPnEep98BKZysnrEhDH1e3pQuDDCMaj6B6B5fhHGhRybQ5IwFp64u1D8xmos6S0_VHCGw", "geometry": {"location": {"lat": 33.89041820000001, "lng": -5.5750196}}, "opening_hours": {"weekday_text": [], "open_now": true}, "place_id": "ChIJVVVVBtlaoA0Rpv_97uBiIlU", "vicinity": "Meknes", "scope": "GOOGLE", "id": "64ff7533b47ca62e73f0df92512beeedc2eeba16", "types": ["bank", "finance", "point_of_interest", "establishment"], "icon": "https://maps.gstatic.com/mapfiles/place_api/icons/bank_dollar-71.png"}, {"name": "Banque populaire", "reference": "CnRkAAAAAIlPzEkydhEDW0wfyvN83V-EgCVKA0O20PMAudDCuyx9Oh6iKRXnh-vrqBi5Mltqr1jb95SjZqcvDYj3nU19WadebQsBfWdLUUpH0wJNPUOqJgk5NsJSYD15CSuuwAffD7pgTnk-_ZhXraNR64_NJhIQ4hx-sQIpKmpq6y48KyCnUxoUAe2u4kCEDOCboDQ5-yLrV4P3EVg", "geometry": {"location": {"lat": 33.9029775, "lng": -5.5781807}}, "opening_hours": {"weekday_text": [], "open_now": true}, "place_id": "ChIJG3OyaCNboA0RtOncBQRjheQ", "vicinity": "Meknes", "scope": "GOOGLE", "id": "50e0f7241c107e4f179f673d7a59be36f45993e0", "types": ["bank", "finance", "point_of_interest", "establishment"], "icon": "https://maps.gstatic.com/mapfiles/place_api/icons/bank_dollar-71.png"}, {"name": "Credit agricole", "reference": "CnRiAAAAh28bXm5ybJB3Pt0mfSJjPGqXJxsM9ukiIroGmgvmh5c-js6dYLa_O98bVF_2SZ_PgCM4HIhTiXmhXKVprebnZW5hzfSvdGB6yKYYErpzSC1aBV34NkONd8mSqsH6qt1tal2Ez7zZol1HVS7zyyLa7BIQlSEmWNKAqvoE7DBuzzQ1QBoUVsm5G0C3ogEc_vuF_f1dWzG5XdA", "geometry": {"location": {"lat": 33.89196829999999, "lng": -5.576916}}, "place_id": "ChIJN-HAyNhaoA0RgYnen2zVbFg", "vicinity": "Meknes", "scope": "GOOGLE", "id": "d2a730f79fbc38cbedbf62718c2ba54dee6ac33c", "types": ["bank", "finance", "point_of_interest", "establishment"], "icon": "https://maps.gstatic.com/mapfiles/place_api/icons/bank_dollar-71.png"}, {"name": "Cr\u00e9dit Agricole", "reference": "CnRjAAAAcchzlW0j2CcaEh7RnYP7jPeL4CDGDbmJ2sXxrsSf_Oo5ruakLyzqM85YIyqnvDGy6MwG_OHdtyWJdLLIoMlzQ1puzlOsqjpRMzfVbSOTEJRXsrqwiM8eKH0C9nNEj9GIWg6vmyQ3P29Jr4ukRqNnYBIQe6U8qK7ABSVmg6FWLPzQRhoUlWo6BY_TMor3cbueS4flLBApXdI", "geometry": {"location": {"lat": 33.890588, "lng": -5.5761275}, "viewport": {"northeast": {"lat": 33.89124035, "lng": -5.575919350000001}, "southwest": {"lat": 33.89037055000001, "lng": -5.576751949999998}}}, "place_id": "ChIJ19C0GNlaoA0R4LZpNvw2H0E", "vicinity": "R718, Mekn\u00e8s", "photos": [{"photo_reference": "CoQBcwAAAIfZh48q2BCvqaX0Lysm4uU2TiPnboyp_SNHkETmGMYX2Z29BGLDVD-wCE7H4K0WQA91jUbMHTuMfzyBBbvay-P_wPTZatym8_yaf8kX0m3Rl7V2kOrbI4AdqoIEkHcMDx9SpyhlisaJfJ18Ec9fuGWqQkwWRrR9tZ_Zgo0HioRrEhBNm1xSaEdrQhIIGajiFnmaGhRJJ2REsW80z9SCB0Q9hqycTRQCeQ", "width": 4320, "html_attributions": ["<a href=\"https://maps.google.com/maps/contrib/106850335063904566001/photos\">hicham bouchanine</a>"], "height": 3240}], "scope": "GOOGLE", "id": "c5068461e770db9b8b912fe955175ecf3e9311aa", "types": ["bank", "finance", "point_of_interest", "establishment"], "icon": "https://maps.gstatic.com/mapfiles/place_api/icons/bank_dollar-71.png"}, {"name": "BMCE bank", "reference": "CmRcAAAAFSA8gGDdjajbi_Ko-TFPawHxjhzRbJt491j6xdER5GRE_-ab-kArQ7CrjVUKqRC1iGLoBuvmc_e6HwIkfMN11e-puo07ddeF_BXyROo_OfPFFdqOS__o36wPQ9N_9mebEhCTjyfpEZ-tEsIYMG06_N6tGhS_8z8pytvK7fVxt-Cq7J4mC4vCvQ", "geometry": {"location": {"lat": 33.8914279, "lng": -5.576547199999999}}, "place_id": "ChIJqU1w29haoA0R-bY656hZXDI", "vicinity": "Meknes", "scope": "GOOGLE", "id": "8aaff40318dbc40c9e896bfecafc0113ab27ea62", "types": ["bank", "finance", "point_of_interest", "establishment"], "icon": "https://maps.gstatic.com/mapfiles/place_api/icons/bank_dollar-71.png"}, {"name": "BMCI GARE ROUTI\u00c8RE", "reference": "CnRnAAAAFWELS9n7qD9otT1LVYYFVQZI81SWNZqsXwhIZu0gFr8TGUsn-0t7W_Fp-ONFU8slzghhwadqvIIItlwbIlZ8Gc0irJdZ6sveKlLMoZysJ5bxfl9i7qXyuPWWjnYjm4NpLmJOsOun6qm5kVZfahqofxIQKOAAIKw6PqDijFfaZYDl_xoU65xVjG6FoV-vAk4F43gP2Kf1yxg", "geometry": {"location": {"lat": 33.8906764, "lng": -5.5764577}}, "place_id": "ChIJd1AvIdlaoA0R4TSjXlEU07U", "vicinity": "gare routi\u00e8re, Meknes", "photos": [{"photo_reference": "CoQBcwAAAJouUNOcPVcKv5QmFcU4ETxlZnulLqz-97WWBx4EGa4ku7lk8Blhj5FYgSpT1rdXJ-ZJ0LKAQsfy25Hnv6lSZEtx9QDcsiV8c5KaSZHzPH_zgDPIXvbjBAfD-97gu6Sj0H-exQ-alX1i0IX-_V9CIMw4eLt4bsNRldm6epVvDEK4EhB52DvsWlE1rm_MXqANhR7LGhT0WRPTIEwasfIqscj2X_tCx10g6Q", "width": 4320, "html_attributions": ["<a href=\"https://maps.google.com/maps/contrib/106850335063904566001/photos\">hicham bouchanine</a>"], "height": 3240}], "scope": "GOOGLE", "id": "4fc1ee7fa228c04b029b87a4b221f89e06fcad80", "types": ["bank", "finance", "point_of_interest", "establishment"], "icon": "https://maps.gstatic.com/mapfiles/place_api/icons/bank_dollar-71.png"}, {"name": "CIH BANK", "reference": "CmRbAAAA5YnAxOHETM2O6aPTO_OOrChdBvoI7qyaBhbfks1VBstAukqk5Ju6cF_eLECZHIzjawBMX--rlAFaG5ck6U0la1sldVo94oSnm46HLsFbp9fT6eV-zTDGRBhJxLFD1Oa-EhBYaHxaRB3UTlNmDkmNXlWXGhT6T9wW7-WGsl-tJPb0UqnKHy92eA", "geometry": {"location": {"lat": 33.891238, "lng": -5.576628999999999}, "viewport": {"northeast": {"lat": 33.89128515000001, "lng": -5.576488150000001}, "southwest": {"lat": 33.89109655, "lng": -5.576675949999998}}}, "place_id": "ChIJw9bQ29haoA0RxzInTJKRSxY", "vicinity": "R718, Mekn\u00e8s", "scope": "GOOGLE", "id": "6b000bd7cd8929817ed889cd29c742f445aea7da", "types": ["bank", "finance", "point_of_interest", "establishment"], "icon": "https://maps.gstatic.com/mapfiles/place_api/icons/bank_dollar-71.png"}, {"name": "Attijariwafa Bank", "reference": "CnRkAAAAN_xhE93GtKFf5_bCm2-aNBpteDd8zC5LahmH9EKKdv24L4e5GyN3xVosI0XH_UP_2-o7WPUek3lFef5E6UCs0vqjmADRnxaZeKB7unuC7CYquMUkB4Gmg8qstcb1zf89k5NS1vd3_E8O1Xlez8_HThIQksDTj-NrHrHXzn_7RWnpnxoU7pYDq0xp5mfIr7SzCrBAsTI9Q4c", "geometry": {"location": {"lat": 33.8911479, "lng": -5.576756399999999}, "viewport": {"northeast": {"lat": 33.89119425, "lng": -5.576617799999999}, "southwest": {"lat": 33.89100885, "lng": -5.576802599999999}}}, "place_id": "ChIJI2ns2dhaoA0RQQHdclK-ZQQ", "vicinity": "R718, Mekn\u00e8s", "scope": "GOOGLE", "id": "a507eab68d61fbbc89a0f15d4bafe7be7a545b3c", "types": ["bank", "finance", "point_of_interest", "establishment"], "icon": "https://maps.gstatic.com/mapfiles/place_api/icons/bank_dollar-71.png"}, {"name": "Banque populaire", "reference": "CnRkAAAAVWU2IC4w8mKBVKvzT3uLHDFuKZgkO4YTZcsdfOHJcsidfWnTRLG25DTmt8IglB63CrNhxERix9hF1b0YuONyesv91wSxjNGaHi15nvKXoyJs18aNaOQdnCs4GsMtwoF10aJqIdULRWKM99Xl6KnRiRIQr1iKMB6MRj24sN-cNxTlohoUxjTJtgFmTMzCJlwUmwxN6ouWl4Y", "geometry": {"location": {"lat": 33.8834695, "lng": -5.5714899}, "viewport": {"northeast": {"lat": 33.88350059999999, "lng": -5.570531699999998}, "southwest": {"lat": 33.8833762, "lng": -5.5718093}}}, "place_id": "ChIJW7F0ENBaoA0RnkEy84uNOJc", "vicinity": "\u0634\u0627\u0631\u0639 \u0645\u062d\u0645\u062f \u0627\u0644\u0633\u0627\u062f\u0633 \u0645\u0643\u0646\u0627\u0633, Meknes", "scope": "GOOGLE", "id": "537375f618c660b3fca9e2d2bb56b6021929911a", "types": ["bank", "finance", "point_of_interest", "establishment"], "icon": "https://maps.gstatic.com/mapfiles/place_api/icons/bank_dollar-71.png"}]}