{"status": "OK", "next_page_token": "CoQC_wAAABD_ehgn4-RqO5BUeQTpr30XHymLW7HOq4yCjeZuXZ75pXe_u5_4RwaFXWgNMtz5DlR46Vlsx6ANsLsKGCmM2wJT1Dhlc0fdttLDBON2eNwuh_mrbnUvp3DRv_nC-tu9aP2kXeGjaujLin9MTc8fwka0RkBRlK8XYTy60ozja051EHYODfTNOBOFRoZLIlHRjSxXeTji9_WFOepZtY2GrNsL50OoiV32j_XGUPgdF_UI6I4L_Nfvv_s3ttVqxGwMEQEJvAVJI4oBPNHOEfsMITRi9gFgWiTEJmeIvYCCL83iachNGISpzg60O4g_iDcDZH50dr3O8QdadPQhdeFDV6ESEOg4oCK-RCQSWoOy_CpPXnoaFP-glChagaSaK6tZg_eaXRW8bBvz", "html_attributions": [], "results": [{"name": "solitaire car", "reference": "CnRhAAAAuK6x8dDZ8g2G2G9kPZKXtOUj4yVLZyBi-4AwZHPgBgx06wEW00S1QL-B6HGk9fT6tOioF1t33pdCd2l4gLXLwSzPF9vZaKi_-y5jECX9JbXn7VGHqkqF296vdx6VOnExO_JqbzT8X2g4fOnmoO1lvBIQCiD3mCr4Spiqng7qPL0XYxoUKIV8vyBZAXSbD6F76G6wvkQMYq8", "geometry": {"location": {"lat": 33.8952715, "lng": -5.5467699}, "viewport": {"northeast": {"lat": 33.89585635, "lng": -5.546685200000001}, "southwest": {"lat": 33.89507655, "lng": -5.547024}}}, "place_id": "ChIJvwsrpNhEoA0R1_HJy88tZ90", "vicinity": "A Avenue des Forces Armees Royales, Mekn\u00e8s", "scope": "GOOGLE", "id": "d5f383823b2d04284a430b408a6497522e600d03", "types": ["car_rental", "point_of_interest", "establishment"], "icon": "https://maps.gstatic.com/mapfiles/place_api/icons/generic_business-71.png"}, {"name": "RIZANA CAR", "reference": "CmRdAAAAQjbb291UKgkJ6ChDgciq7ORzTsH7B2chABYYTxxZGnGVgcT7EWOSxFatLkKZCFV90kWbJqTvEsodnPXPH0UvfvGcRSOuyIkBstHu8I5nkP03-Fp4bRK539fLsqfrefmjEhBx32qtroSHmA3xgISub9ynGhQg4pT7Xgzau-htey556fpJ61D4eA", "geometry": {"location": {"lat": 33.8661974, "lng": -5.5764681}}, "place_id": "ChIJaV0CXLlaoA0RvMYB66sC4j0", "vicinity": "Meknes", "scope": "GOOGLE", "id": "aaa6c0df0dd8fdb25af39540c59bd9bee41b8512", "types": ["car_rental", "point_of_interest", "establishment"], "icon": "https://maps.gstatic.com/mapfiles/place_api/icons/generic_business-71.png"}, {"name": "Tarik Essalam", "reference": "CmRgAAAANzg8BRgg-IlrS85mMCapbBnr7HokjMlIgtZra41bUAp0KIteXFOiM8sqTvnJEhXR2syBDkVYONuI5MxnmLdrHTcyDEL9IZSwfjV1omX_xB_tZcDvXOp-xNDFHtRSdD-BEhBc7k-e9AB7ZXhC94LcgP2kGhQ5WdGdSzHPYpJohzS1pbZWtfj53w", "geometry": {"location": {"lat": 33.8664691, "lng": -5.539839899999999}}, "place_id": "ChIJL87L7mlFoA0RGHlMoh2alWU", "vicinity": "13, Mekn\u00e8s", "scope": "GOOGLE", "id": "54e11c346d3ec64639fec52b0b810be003543587", "types": ["car_rental", "point_of_interest", "establishment"], "icon": "https://maps.gstatic.com/mapfiles/place_api/icons/generic_business-71.png"}, {"name": "Karzazi car", "reference": "CmRfAAAAqRqX31WnplCNRKtsrDWd-jyCrQwQR7xwlAVOr1rH55DwOKZsp-8sUgS5Y2kjdcPU5CQ9gHR8EF8guxaXXtPvql2GpPFd60fvRkljxqOPhpx9j6FAYO0kZTfNS7HTQycLEhAv9GUO1vQTDjNT0BWXsj0XGhT_BgtZ2eOrgmToIVTul7-sViKkrQ", "geometry": {"location": {"lat": 33.8948271, "lng": -5.579334100000001}}, "place_id": "ChIJ9SPokiBboA0RK4q3crecdJQ", "vicinity": "Meknes", "scope": "GOOGLE", "id": "ff9bb3feb7b42f57b8b577e447072ceacd29612d", "types": ["car_rental", "point_of_interest", "establishment"], "icon": "https://maps.gstatic.com/mapfiles/place_api/icons/generic_business-71.png"}, {"name": "GLCAR", "reference": "CmRYAAAAp8kQkwIofNyo-5dZXO4yAdHaJa2u-YagBiyBT-xwd_jewdlmT5tmPMC0nod5I9pRvvmg1Dhc5FNNFOiNwyWg-a8gUYpmpSZxvIRRO-g29Ykj9Oq7dGrjIf_WG7xPjd5JEhDx3nrCATY5qzxirmSw6Qa7GhSl5I2mEy2xX2mEkizGfGtcV0D9rQ", "geometry": {"location": {"lat": 33.823439, "lng": -6.065089}}, "opening_hours": {"weekday_text": [], "open_now": true}, "place_id": "ChIJ6fvdmmDdoA0RR6wA8jwYQRc", "vicinity": "numero 24 rue cadi ayad quartier administratif\u060c Kh\u00e9misset", "photos": [{"photo_reference": "CoQBdwAAAIexI_-M_pvfgb9n3bXGqj1n5Kj3IGZmQmNEC6ZAHsxcDY7RfB_lTF7Kk4fTJ7pLStACGp7Q4d1JBA2lZ7mMkt-QYzCYA_vdBwNBmPHYEXaHmP5v54nHgneU20vbHhathiYMPnaZ26IVJzdYX_lHUwkCs2Y6_OISMe6n6O5nRSbsEhByByUA9UpsgaQMUpcsM12bGhTLLZctJTpvX0DBnKS0qxyhN0Qy3Q", "width": 3872, "html_attributions": ["<a href=\"https://maps.google.com/maps/contrib/112387254739749190373/photos\">GLCAR</a>"], "height": 2592}], "scope": "GOOGLE", "id": "50a4100d81e9f1a9cd086426d0a17d0ca7e59349", "types": ["car_rental", "point_of_interest", "establishment"], "icon": "https://maps.gstatic.com/mapfiles/place_api/icons/generic_business-71.png"}, {"name": "Best Family Car", "reference": "CnRjAAAAkXAjU2i1wRMttk8mf1M5iiKqCYyFOhjoAu0ch3KwzA772zb-9S20PQpKNl5_ZdRUCVPkPiboQvYX72NeW0J9S7Axy8E_WN6otItXoJIxqspalNPrxBmsS8dmJz8vyrxljv3uOYUrf9wK11oAYJa20hIQEesO0Y2beRkHBbtHdW2zzxoUrutucpn-l6OHAe2lRlzQUMO_2AA", "geometry": {"location": {"lat": 34.0510638, "lng": -5.0366668}, "viewport": {"northeast": {"lat": 34.05130565, "lng": -5.036297199999999}, "southwest": {"lat": 34.05033825, "lng": -5.03679}}}, "opening_hours": {"weekday_text": [], "open_now": true}, "place_id": "ChIJB0ZLtMqKnw0RcTkc8SUPuN8", "vicinity": "0661089885, N6, Fes", "scope": "GOOGLE", "id": "a20b9127175f0588a26f7af488a98cc6e2569cd2", "types": ["car_rental", "point_of_interest", "establishment"], "icon": "https://maps.gstatic.com/mapfiles/place_api/icons/generic_business-71.png"}, {"name": "Car Rental", "reference": "CmRdAAAA2eJ2TJXI6AQx8bsS7d1g6hZZgDf7N6snFaOPo-oC06mArtD3zyq-5-O_bA0pzHkXxu6G4yWTDLRP2CBnKL4PjQy-wBzZCABu8gj_JhNSI_HthS0X25GjfrVKVPO3oWmLEhDO89k3K1Zy4-PIcr9bul9KGhTeUnfkqC9s7P_cq9mEFfHXFvq7Sg", "geometry": {"location": {"lat": 33.8991404, "lng": -5.545509399999999}}, "place_id": "ChIJn43Jyd5EoA0Rloc32xHIs0Q", "vicinity": "Meknes", "scope": "GOOGLE", "id": "0ffc1d70abb200138103ff9baa8b7f319f1e9ae0", "types": ["car_rental", "point_of_interest", "establishment"], "icon": "https://maps.gstatic.com/mapfiles/place_api/icons/generic_business-71.png"}, {"name": "Hamrya Car", "reference": "CmReAAAA_Ol3T-t8g7p3cYSv6hlYmRb7tt07z3twgrFyhagTG-C-FAYwXJ_8yywKEhAm9P2-HBYC7J2KXl_2eN1oSoWUdiuUW6yrvmpUlHD_FpR5dhz7rEcJvCiEPqsHu4Bl-QSXEhAMTUVYYaWlFPW0148lSHRDGhQNVLaOQnCcQ73E-CINr6Vao9rcww", "geometry": {"location": {"lat": 33.8961006, "lng": -5.5443111}, "viewport": {"northeast": {"lat": 33.89639804999998, "lng": -5.544282549999999}, "southwest": {"lat": 33.89600144999999, "lng": -5.544396750000001}}}, "place_id": "ChIJy8Sxbt9EoA0RdNVCI6YLpIs", "vicinity": "Centre commercial Continental n\u00b022 v.n., 94 Avenue des Forces Armees Royales, Mekn\u00e8s", "scope": "GOOGLE", "id": "4150bd5500a9803b0fc90f7f06fd1f4d7ed6b6b1", "types": ["car_rental", "point_of_interest", "establishment"], "icon": "https://maps.gstatic.com/mapfiles/place_api/icons/generic_business-71.png"}, {"rating": 4.9, "name": "Clue Car", "reference": "CmRcAAAAbwL00X7EeHO9enlSfWIR92F02MQrsdVyLcm98T2T5QyLLV_DUz5CcoE53q4mEhD8zRjq1SpykdRFhuRGK3jyn7x00bdQ2OxMmhRopmc_QDmgVOWxSiWIKYsHfg7z2iahEhDpXN02G5JAyxjPOYvq9nWzGhSV8vaoK1CEYMB_Vob0-FBkt5dSXg", "geometry": {"location": {"lat": 33.8959637, "lng": -5.542896199999999}, "viewport": {"northeast": {"lat": 33.89609355, "lng": -5.542690549999998}, "southwest": {"lat": 33.89557414999998, "lng": -5.543513150000001}}}, "opening_hours": {"weekday_text": [], "open_now": true}, "place_id": "ChIJWboZm99EoA0R734teEK4_4Y", "vicinity": "\u0634\u0627\u0631\u0639 \u0646\u0647\u0631\u0632, Meknes", "scope": "GOOGLE", "id": "191423e551e7779a049360f6fb4f832bda0bdf3a", "types": ["car_rental", "point_of_interest", "establishment"], "icon": "https://maps.gstatic.com/mapfiles/place_api/icons/generic_business-71.png"}, {"name": "SERENITE CAR", "reference": "CmRfAAAAzUuDptY67aj8DKxDd6Xp6eC0bvHb-RPWP916k-0M0GtirugPpUV2tc3feXuDdzOw2VUnLnL8mCXwytZtbLjOFn7p6QL8hnOmBse0zBBavm4yul75w_EfnNpF3_0VlEUPEhBZINtt8PWvZVGt0eM3j9YWGhTaFP8KM8RJ75rwt_DtV2690dIUtA", "geometry": {"location": {"lat": 33.90133, "lng": -5.555067999999999}}, "opening_hours": {"weekday_text": [], "open_now": true}, "place_id": "ChIJWW0UP9FEoA0RkEGIeIFvMEE", "vicinity": "2 Rue El Mansour Dahbi Numero 19, Pres de L Hotel Transatlantique, Mekn\u00e8s", "scope": "GOOGLE", "id": "cee14a3e4128a6ea2b2182eeafe95a879a8138be", "types": ["car_rental", "point_of_interest", "establishment"], "icon": "https://maps.gstatic.com/mapfiles/place_api/icons/generic_business-71.png"}, {"name": "SAHARA CAR", "reference": "CmRdAAAAEqxXCX_DIhc7SYpo-19BwFUtPZPBCZWH9QIfRyZuhchsx6dpUTzsA_2qAZ5npX-TChkuhAWeazkFiA1dXgsKzrbZwDQdNg6Q2wqOzoASLk1Aroa5-qBtzfRQi-sKWz_AEhCkPmjGxk3n2zJJKHbmAqs4GhR4dzOppVKN6eNUCYqbMBZj2hd_ZQ", "geometry": {"location": {"lat": 33.894876, "lng": -5.549426}}, "opening_hours": {"weekday_text": [], "open_now": true}, "place_id": "ChIJfa8qdthEoA0R9uBKRIaxEDA", "vicinity": "13 Av Des F.a.r n\u00b03, Mekn\u00e8s", "scope": "GOOGLE", "id": "2a0d0b2d59541bf633d94cf4cd7357791155055e", "types": ["car_rental", "point_of_interest", "establishment"], "icon": "https://maps.gstatic.com/mapfiles/place_api/icons/generic_business-71.png"}, {"name": "Ryare Car", "reference": "CmRdAAAAZzuvyN8eWVWPVOdjFpOkj4YzXsdiu2WQZg1H4-n5gXI2jN1csNWgIQmkLGs4OxVTTStvOW9YBvofeBkvaA38YzO1m7FGAq00_yMRxGa-iUbDDw5rehlFt5Byk98TVggsEhCunMr6dTEeMzYNF4MMBfcBGhScLlUOR5Vg96T_yJ5Dudg6sRQfVw", "geometry": {"location": {"lat": 33.9071593, "lng": -5.541273500000001}}, "place_id": "ChIJQbMTpcJEoA0R57b-f4FFQKY", "vicinity": "Meknes", "scope": "GOOGLE", "id": "023ba902b90c9aa0ea61b02a6cded0c3f543568e", "types": ["car_rental", "point_of_interest", "establishment"], "icon": "https://maps.gstatic.com/mapfiles/place_api/icons/generic_business-71.png"}, {"rating": 3.3, "name": "Grand Taxi", "reference": "CmReAAAAlVGAVeJoS3FGb2va01lgA03CHTjI-4zuVUlGURZmJpxx__ogl8BgiU3hh00cgo3k6C6Fm32xxVq8BP5TTnvGdFs296yq3Wt3MBo9jR0vTQc4Op83Z7l4OQxaFl4PTm6UEhBYjpUZBqp4arIrYFUPk-lWGhSdAH1bfyFHrUpgANaLAp3oiXo3yQ", "geometry": {"location": {"lat": 33.8914691, "lng": -5.567142700000001}}, "place_id": "ChIJ2X9KsCpboA0R_gSWjdW2ILU", "vicinity": "Meknes", "scope": "GOOGLE", "id": "e200a52a9bd94a0c0be5039df42296a1ab57554a", "types": ["car_rental", "point_of_interest", "establishment"], "icon": "https://maps.gstatic.com/mapfiles/place_api/icons/generic_business-71.png"}, {"name": "\u0648\u0643\u0627\u0644\u0647 \u062a\u0627\u062c\u064a\u0631 \u0627\u0644\u0633\u064a\u0627\u0631\u0627\u062a", "reference": "CoQBegAAAHUR-1pe5YnJJkRyWMhlBe23DHkeIDgZDPh36HDNzYmN9hRPtokttKCseZGmoCF9P9uwKYW7_yeClIdcgdZSxgrIt51ga9ZwLVi3GwyLJc5iJAwQqlVRMeV_BQLQkFhTFNHtqxIqr-wfRISGBMmSaREAkmD_6pu7rD-j-WOpJbPEEhCVt4-HocM9e9L9bXnfcjS9GhQe7G48ugK4bFMh7fOBRR7YVEwffw", "geometry": {"location": {"lat": 33.8815851, "lng": -5.5728562}}, "place_id": "ChIJkda2XMVaoA0R0bHAN8MFbMI", "vicinity": "Morocco, Meknes", "scope": "GOOGLE", "id": "3cb4446389fc636d3370cbcfc4be77d563478192", "types": ["car_rental", "point_of_interest", "establishment"], "icon": "https://maps.gstatic.com/mapfiles/place_api/icons/generic_business-71.png"}, {"name": "Bonne route car", "reference": "CnRiAAAAArSZ243wzgTsEN_h2fcCnLogHN1UDZE2ulci2E_R5qnWvmxGJhWIywKMZyQ86x2Wiz-lx_tNLtzV4R5tRREPPu8ncOGslEdXIRfnl0zef-4rlXGQ3qaCNGolAu2HkLfSAbVKjbtX1_iTP084lUhWNBIQQmwvAivF7EbnKfCHuXK7xBoUGlm0D3gc0N01KoZjxyxkyE9Y95k", "geometry": {"location": {"lat": 33.8945009, "lng": -5.581009099999999}}, "opening_hours": {"weekday_text": [], "open_now": true}, "place_id": "ChIJgwL4ayBboA0RWQaPLFHWtFQ", "vicinity": "Meknes", "scope": "GOOGLE", "id": "cfc62046cf67696b4fc2a74ca401386fe1973b8b", "types": ["car_rental", "point_of_interest", "establishment"], "icon": "https://maps.gstatic.com/mapfiles/place_api/icons/generic_business-71.png"}, {"name": "STE LOCATION DE VOITURE Hausse Car Sarl", "reference": "CoQBegAAAHqt5wGkSt1wxWyjTXYnryOh0TABjqFVwzG06l5XRWha8Hxzm86vogLR1BS_d2IP5MaV8CDYzMpi-ZQBuoiRgDkOVjppYJ4lZM_rdqFFpwJflYxvG1skXYPuToFe0SBkgVNPsIjO38u-Zu6-Vxi-5rkGQAF4JdTpkz5F-nG2VemaEhC9GJMeq4J59yXPhULO3yVpGhSdkLY9JTtwua0LLIN6PoMgr2HIpQ", "geometry": {"location": {"lat": 33.865294, "lng": -5.583314400000001}}, "opening_hours": {"weekday_text": [], "open_now": true}, "place_id": "ChIJUTE_BpZaoA0RhwNPhP7MVwg", "vicinity": "N36 lot, Quartier El Mansour, Meknes", "scope": "GOOGLE", "id": "59dab1c263612c03a97c8f926cf94065ae2df2cc", "types": ["car_rental", "point_of_interest", "establishment"], "icon": "https://maps.gstatic.com/mapfiles/place_api/icons/generic_business-71.png"}, {"name": "Clue Car", "reference": "CmRcAAAA3NWYs-wMy4b0cK8h1T9lb0T4BhbOjK8yrpVrBR3OE7-grF8cfbJ6TzbJgJ-G4cndCaoub11aTA-g7KziSkzJqL3QrnD77qqRrNhiSX60Zjjqv2yNwuD7pL8wQCI9mfa4EhAuzNmvfBy8Lzbje0tdv8SmGhQNYdKDIi_cDRNRiMJeVF5L6zbLRw", "geometry": {"location": {"lat": 33.9015888, "lng": -5.486286}, "viewport": {"northeast": {"lat": 33.90167175000001, "lng": -5.486231699999999}, "southwest": {"lat": 33.90156115, "lng": -5.486304100000001}}}, "opening_hours": {"weekday_text": [], "open_now": true}, "place_id": "ChIJ57dety1EoA0R9cSWTN6mLsU", "vicinity": "Route Principale F\u00e8s Mekn\u00e8s, Mekn\u00e8s", "scope": "GOOGLE", "id": "9139505f0e1f26c81da7de37c4471aa177f621e5", "types": ["car_rental", "point_of_interest", "establishment"], "icon": "https://maps.gstatic.com/mapfiles/place_api/icons/generic_business-71.png"}, {"rating": 4.7, "name": "DISCOVERY CAR", "reference": "CnRhAAAA-4fVl59vbA7h33CSIB7DeiL2DRIkwYQfHR8p-C10l9myb4It_uTTGycq7T9oIPxdkzvBD58yW1heXwqHuSrS75pSeY2kcsYLG7DLYlTbPRQV01EgOu1V1v0ObgjVX6_Z12djEXOH6kWVbYLbSRSo7BIQqIHjwZPju5TB2ijjaRxczxoUaLjx1hbv_gSKfWnYy-t91t_o-9Q", "geometry": {"location": {"lat": 33.93800100000001, "lng": -5.208989}}, "opening_hours": {"weekday_text": [], "open_now": true}, "place_id": "ChIJbfhtL7wkoA0R72GqeKGbc4s", "vicinity": "152 Hay PAM, Ain Taoujdate", "scope": "GOOGLE", "id": "53e15886de3224054825d0606bb4cec35b5b2398", "types": ["car_rental", "point_of_interest", "establishment"], "icon": "https://maps.gstatic.com/mapfiles/place_api/icons/generic_business-71.png"}, {"name": "Sodiaf s.a.r.l.", "reference": "CnRiAAAAn0UhNnlOkkuNiPbr6_5IXq4QSOT-9z-T48DTef5qf6Ydr4lT_H-Gh7_a1Blhn1r8_2N4_Eke2VaZtt1iZwFn2hdY5KQNOgBhTH2OL6k5raxx6tJJ1vbFoPBvo6vGcpIaZSzYUb60AnpVkzSKa6kd2hIQ2zBNkLL_a3IIAZdcJshVJxoUkzndmGakq2G5fEqtig1Nlg9j_nI", "geometry": {"location": {"lat": 34.0011004, "lng": -5.057862999999998}}, "place_id": "ChIJ3STuGX-Knw0R8hvcbd9dXiQ", "vicinity": "Hay Massira, 443, Hay Namae, rue 7 Ben Souda, F\u00e8s", "scope": "GOOGLE", "id": "b7a91b4a2bb9003595a8f097aae0dc3d6f339fb7", "types": ["car_rental", "point_of_interest", "establishment"], "icon": "https://maps.gstatic.com/mapfiles/place_api/icons/generic_business-71.png"}, {"name": "La Maison Fiat", "reference": "CnRiAAAAjFxu6FUmLFvzEBw5PiVZoTwCFHXO_VJOMkwWYH2SKx8MRIr3aU1RIY15Lp8Agg_Xu3zsAZ6_7C0pJUayHtLOK8GS8TEbU6GC82EtJeFQFOhHHOv66PWa5IlXMZa39aOMQd6IhwQ8yl6jlzRAp8MwsBIQqHgECv5baSdT5uerGl-5XRoUvPiH6UhHJgiS5-gVfxKpkwY-fsM", "geometry": {"location": {"lat": 34.0453642, "lng": -5.0532898}}, "place_id": "ChIJIQPrP6yKnw0RIRzJXrUe190", "vicinity": "Fes", "scope": "GOOGLE", "id": "f875c6081934e1d2f45335827d0951ed354d9f02", "types": ["car_rental", "point_of_interest", "establishment"], "icon": "https://maps.gstatic.com/mapfiles/place_api/icons/generic_business-71.png"}]}