{"status": "OK", "html_attributions": [], "results": [{"rating": 4.4, "name": "Mimid Galerie", "reference": "CmRgAAAADkKVMByLtqBsjR-_eXslM5GLYkmWh2ufnhROzjt3wx7fAIXEZwoZGRjZyNOEPKQv7g0ZA76TiZ6GkYd04k-7wJKVMLxJsn_LHxUjSP20NQSlGIpqbhdML14BufnPOwjuEhBDEoEsJKtMRTG22TE469ZoGhQIWySzw49D2KhZaCusQ2fAc2MWRQ", "geometry": {"location": {"lat": 33.8973473, "lng": -5.5446947}, "viewport": {"northeast": {"lat": 33.89738565, "lng": -5.544638499999999}, "southwest": {"lat": 33.89723224999999, "lng": -5.5448633}}}, "place_id": "ChIJY-hQhe5eoA0Rz-FRN0V4IlI", "vicinity": "39 Avenue Mohammed V, Meknes", "scope": "GOOGLE", "id": "7f41e1d10baa931b68767e10fb27c1f59405a0ba", "types": ["department_store", "store", "point_of_interest", "establishment"], "icon": "https://maps.gstatic.com/mapfiles/place_api/icons/shopping-71.png"}, {"name": "\u0627\u0644\u0645\u0639\u0631\u0636", "reference": "CmRfAAAAIZ26Hst1NIBSv8wfEGI3X_2vNDo5RWgCUn6hKVURfFRAtCfx2jnbjRJ3uX9jxOxUkna_8oUoy3C8RGLx0GThHlBOELz5SxfudFufxgcwdKhPDci-2ob2XlGTo9kdvZaTEhC1_D7qoXpmNQFhGZYzWYw7GhSMShOGlSjYFU0cbTupoAFTLZQR9g", "geometry": {"location": {"lat": 33.9109892, "lng": -5.4848439}}, "place_id": "ChIJ46R-sCVEoA0RmVZPGwzEKy8", "vicinity": "Meknes", "scope": "GOOGLE", "id": "74fde6c610f23ca0a8b7e4c7622a135e9558276f", "types": ["department_store", "store", "point_of_interest", "establishment"], "icon": "https://maps.gstatic.com/mapfiles/place_api/icons/shopping-71.png"}, {"name": "charkani el hassani", "reference": "CnRnAAAA6-OACTCxs-YBGGvwEIAXHVKpFq415dptzPRimCR4zDOfc3Q9_WSN9h811ZaAcRpyTfM5R7ZvIKKDiaGJedxaQ_3N47-YtHEQADbpRTO3KqfXpv1bzOAg28LiR5Okk2F4iiPhFvYdn7AYQJpoKWxQ1hIQhkmo3kdJ9ZIs066mlZbtDxoUiNaj7p2gIC0NFrac1SLbMbjcrNo", "geometry": {"location": {"lat": 34.08672800000001, "lng": -5.178884}}, "place_id": "ChIJj7h_z_0YoA0RsSRKl0P75Kw", "vicinity": "Moulay Yacoub Prefecture", "photos": [{"photo_reference": "CoQBdwAAAEckO8Krq42VIQZ0ZyGuORNA1QuLuAhN_re0KQGgZsdcHu5qNd-0msWZmZux783wS5veHnwSKI6ju9c75swElHrvm3z7LeSh8A7F9_7YI6iMHmWMGAyR71Ev9nQHBT-1sgfsD1fhNJ6vl0XJEk6PeFwohtY8__QeJq5z6OXedfl4EhA2zNOVMpFNwcMLZsaEUO5VGhQRXshxTOBqu5Uwgd02_HWFqp5MYQ", "width": 960, "html_attributions": ["<a href=\"https://maps.google.com/maps/contrib/101906220818909435381/photos\">Youssef Hoummane</a>"], "height": 720}], "scope": "GOOGLE", "id": "2a96342b1aee07e74258935b51543d8eb71ec8c2", "types": ["department_store", "store", "point_of_interest", "establishment"], "icon": "https://maps.gstatic.com/mapfiles/place_api/icons/shopping-71.png"}]}