{"status": "OK", "html_attributions": [], "results": [{"name": "Hlfit Andwellness", "reference": "CnRkAAAAazoAJHTUo31-2Lb1Y3Tp9daHyXN21BMwTrhyYGpIbYe_UVhxs8nwpKGNbxtxJlfvvgqYMpgnFS9-wKG40vH7PIIA4dgJ5ZRfP_aGFhYRC5COqRXEF6Co4UYwgkIjAJNsG8Cp7PIIpJ92I4-Js1EDnRIQhNenlsfmzLwR5yWs7cNB0hoUuHvAKjyk3E1X8T7SjRQK4UGd69g", "geometry": {"location": {"lat": 34.0391111, "lng": -5.043729799999999}}, "opening_hours": {"weekday_text": [], "open_now": true}, "place_id": "ChIJlZsaV7eKnw0RYofYM88wq0A", "vicinity": "Unnamed Rd,, Fes", "photos": [{"photo_reference": "CoQBcwAAAE6yVErqHAsJ660QkY3gnK8q0agHyME1rtIqHnSUcaab0KYgcSOo0a7gO-147yyCHOSZvU1JWpgYmdliB1FWOou_PrP6n-VAhZ9YjEzfPMM-y7lNRBQCWukSv8Peetowo6K2vFludNxuau35T8UoaGYbJC8yZxcxexdFuJEp7vQSEhCFUeGx66MfDjt83IrWcmw7GhRnK5JkfqfA7DErPTClqkHhufJgCQ", "width": 720, "html_attributions": ["<a href=\"https://maps.google.com/maps/contrib/117887006208852117336/photos\">reda hassan</a>"], "height": 504}], "scope": "GOOGLE", "id": "338d1accd88eb4567a696e38972e26c7e5f77844", "types": ["gym", "health", "point_of_interest", "establishment"], "icon": "https://maps.gstatic.com/mapfiles/place_api/icons/generic_business-71.png"}, {"name": "\u0645\u0644\u0639\u0628 \u0632\u0648\u0627\u063a\u0629", "reference": "CnRmAAAAGi76GFZWct3MKAmtsOc0qmZO-4eEazr0HKeoS7aCqnI8lqgn7zBkzHNlylaayg3_Bz9qHjL6GEiq0fVC8yF3iRTrCGJ4xfZTwTmlKyImZxFskS_Xy-9iOvmncEe7x8HwSsAr-D9OvO8x6jQDbHLvAxIQD82HfFft4_aMxjQ2VceLXBoUX0UNzPi-3wFLy-Fh-AD8jrLmlP8", "geometry": {"location": {"lat": 34.0202169, "lng": -5.035708}}, "place_id": "ChIJ-RlBTuyKnw0R8foH9aKa7Sk", "vicinity": "Zouagha, F\u00e8s", "scope": "GOOGLE", "id": "d9b3e7b097dd7536399cd899f6561db5b8ca097f", "types": ["gym", "health", "point_of_interest", "establishment"], "icon": "https://maps.gstatic.com/mapfiles/place_api/icons/generic_business-71.png"}, {"name": "Association Force & Beaut\u00e9", "reference": "CnRvAAAAdYDCtK3A6uHbkzMuoK95G93kSalYOpyGMorHm60TcaHFCHrvu3cLRQVeCEFlUVheZx5NtePgA8LXVC7SQnRHOw21QZlHV86PcOkIzBGb6PDZG3NuqQvLEQzkZshvz10kat8nVLo9zjJvT4Z9dyCCMBIQIJZTER7Y1rAciYB9Iwtw9xoUZKbTmU8zzi0wa-xn_q5tpVMP1PU", "geometry": {"location": {"lat": 33.8329021, "lng": -6.073769799999999}, "viewport": {"northeast": {"lat": 33.833005, "lng": -6.07366495}, "southwest": {"lat": 33.8328678, "lng": -6.073804749999998}}}, "place_id": "ChIJ7aXcyK7CoA0R5QBCrK3jUbE", "vicinity": "Rue Chouaib Doukkali, Kh\u00e9misset", "scope": "GOOGLE", "id": "60427750cba6adaad4a07244f81b7b60d3128fe6", "types": ["gym", "health", "point_of_interest", "establishment"], "icon": "https://maps.gstatic.com/mapfiles/place_api/icons/generic_business-71.png"}, {"name": "Zahra Gym", "reference": "CmRdAAAAlf7iC9ghzjviW8ckUj4UqnPcnxZG0GN4I3Y76huR55hvLd9_XLnANXuwyOtoEQpkiOl2W5__3h-AVpOxjNeCah6WpMTDqWXlXHeAmqS2dIpuPNTR0B3Y0o17LIfAQvZTEhCpbfzza4C1Bv3JjaH_DtmJGhTYJQquWEujXBBp2qyaEKe9cXP65Q", "geometry": {"location": {"lat": 33.8107268, "lng": -6.074040599999999}, "viewport": {"northeast": {"lat": 33.81142339999999, "lng": -6.07376385}, "southwest": {"lat": 33.81049460000001, "lng": -6.074132849999999}}}, "opening_hours": {"weekday_text": [], "open_now": true}, "place_id": "ChIJMQSAxFvdoA0RyOsK6R1DnPY", "vicinity": "163 Oued Al Yarmouk, Kh\u00e9misset", "photos": [{"photo_reference": "CoQBcwAAAB5Eu1dpXHQJcxVH8sqgYYhSI70T_Y8VGu2WOhomYy9OiC6k-iFlNa-AyNe1xP1FPxypBfBGYH3a8QbAsSUWl4WPEbqkeLN6R3axbKam44_KDrdi7smBkh2IrbfHfnSXu1qJhP9v1WC1zKNwkg0EO-fIuZze74TeVxq8EA9VzjdOEhBH0Ju_BNSVcDbA_mLTnYYRGhQnDSKPIy1Z0aRVKzAJec461MO7Zg", "width": 960, "html_attributions": ["<a href=\"https://maps.google.com/maps/contrib/100862729908340451392/photos\">Zahra Gym</a>"], "height": 720}], "scope": "GOOGLE", "id": "b6723bbbf3cd8ac77b5851d064532eab7a9abb11", "types": ["gym", "health", "point_of_interest", "establishment"], "icon": "https://maps.gstatic.com/mapfiles/place_api/icons/school-71.png"}]}