{"status": "OK", "html_attributions": [], "results": [{"name": "Assurance ASSURAMI", "reference": "CnRmAAAAkoFyKZcKCkRP9jIXqa73wXJkV-voToa17pP3QFi_XgggUKzOaD8UadeWD2IvSG1NudVTPaEQUccHRUEMOxs3BFQ9jNmKP4WLMl-CWCSXFN3RMm0ff7103UjXC6ADaqehRxH_ZJonmEw2IP3fLcklXRIQK_t7t_s3EmsgOCHyMqrUMRoU_2BQa86ZyZmCb7jxNQz2wLNg58o", "geometry": {"location": {"lat": 34.2229274, "lng": -5.710723400000001}}, "place_id": "ChIJO1Vi5Gp9oA0RDoFfV5PlKLo", "vicinity": "N\u00b0: 9, Rue:5 AL HAY AL JADID_, Sidi Kacem", "scope": "GOOGLE", "id": "fa04cdcd07a5ef4147e20c6b2c37a4d63d64779d", "types": ["insurance_agency", "point_of_interest", "establishment"], "icon": "https://maps.gstatic.com/mapfiles/place_api/icons/generic_business-71.png"}, {"name": "Assurance Lazaar (AXA Assurance)", "reference": "CoQBdAAAAI3SikyD7zDXVV7slti84B6k9ySSM-wThQAWezw6YBQabyDE1KNltXCENlgkGZJqTvudSXAJjM2YHq3JPfUDpbfizS5zcijz8-MBq5AfAoWDpqullfCHELeyFF4glK3Jdu4Uj75BO-t_dwW_7stx8xYN19D4h0zkUdKVqUCYTCs3EhCPfqiGEr_Ded5jucDGbHW5GhQl1FSzc-igxDzG7gL-NP4pwoOIfg", "geometry": {"location": {"lat": 33.9988967, "lng": -5.057149499999999}}, "place_id": "ChIJheBNKHmKnw0RIcU3_rZq0Zw", "vicinity": "Hay Massira, HAY NAMAE N\u00b0360, 1er \u00e9tage BEN SOUDA, F\u00e8s", "scope": "GOOGLE", "id": "b0db15eb33c86e2d885ff916958d85a8704a177f", "types": ["insurance_agency", "point_of_interest", "establishment"], "icon": "https://maps.gstatic.com/mapfiles/place_api/icons/generic_business-71.png"}, {"name": "Assurance Hamria", "reference": "CnRjAAAAsiN4pgLfADXxiQYbC8wxeeIBso8AwVyK2ssXOvdx3SDNVnkkUL00lkTDnWHa0kmnRwEsp1ekkHcPFcjThBjnP7ZopHLMkPQkyDOsWF-JI5kz5z0dJmPJHZC7JdvgdPTFSovrhAFpZsVnQPEo3lVfmxIQMu128ve2jecFkK9cyK5KphoU9PoWccoFFZEwLWCkr6ZKJnmwFlI", "geometry": {"location": {"lat": 33.9016555, "lng": -5.5488937}, "viewport": {"northeast": {"lat": 33.90176835000001, "lng": -5.548878}, "southwest": {"lat": 33.90131694999999, "lng": -5.548940800000001}}}, "opening_hours": {"weekday_text": [], "open_now": true}, "place_id": "ChIJeeQtNNpEoA0RaiohDZWgYUM", "vicinity": "29 Boulevard Amir Moulay Abdallah, Mekn\u00e8s", "scope": "GOOGLE", "id": "c6ad6e6c4078b4818076c4f01fc45ad900fb789f", "types": ["insurance_agency", "point_of_interest", "establishment"], "icon": "https://maps.gstatic.com/mapfiles/place_api/icons/generic_business-71.png"}, {"name": "BENKLILOU ASSURANCES", "reference": "CnRoAAAAsirtvM19AOmPDfQryON-80XabPIVO478BbrA1pLgTl5JIdwQcDIv4eb1t7BRSZN44i3oymI1d_bxFOAPNOxee-wUBdNnAkkdX4261tedN2V0HH1MjNHUdv_Rn_FhjxDiSE4wB3i6B-5Uc2UwyLx3ThIQ1BVEfbHEMjPQzFcWQm2kiRoUCViDdBiXrsAFDCHG1Rcdcv5TaKo", "geometry": {"location": {"lat": 33.8998237, "lng": -5.549659699999999}, "viewport": {"northeast": {"lat": 33.89986945, "lng": -5.549549450000001}, "southwest": {"lat": 33.89980844999999, "lng": -5.549696449999998}}}, "opening_hours": {"weekday_text": [], "open_now": true}, "place_id": "ChIJlUzAjdlEoA0R8g0xafT6RNw", "vicinity": "Angle avenue Hassan II et, Rue Antsirab\u00e9, Meknes", "scope": "GOOGLE", "id": "73e9c6aefcf5aeca67daec0cf2646d0d78c5f954", "types": ["insurance_agency", "point_of_interest", "establishment"], "icon": "https://maps.gstatic.com/mapfiles/place_api/icons/generic_business-71.png"}, {"name": "Assurances El Menzeh", "reference": "CnRoAAAAJwTsabYEJf2_Gibc1H78_Eg88_FDpl0wo-ImcFs8S44AOFkDfbpivOlC71nItmdSNk-TrRCFmcg-cEs_F0zAGQkopL8YNcDKx5F4wCVzUuAwhwEOdwWP0knaReBFUYFoDB_H5IK0PC4NZ9mexkvcVxIQ2-I13DKXW197K5NowTddGhoUJyDh0cgu_3_W-LUfZJ3nPM-2ijI", "geometry": {"location": {"lat": 33.8989325, "lng": -5.548727399999999}, "viewport": {"northeast": {"lat": 33.89917999999999, "lng": -5.548686199999999}, "southwest": {"lat": 33.89885, "lng": -5.548851}}}, "place_id": "ChIJs5xQoNlEoA0R2BOIpiWl_Zw", "vicinity": "Rue Omar Ben Chamssi (Ex-Rue d'Accra) Appt. n\u00b011?, V.N., 7 Rue d'Accra, Mekn\u00e8s", "scope": "GOOGLE", "id": "68b03fd42b706697f576a6fc9c34041ecb8c9401", "types": ["insurance_agency", "point_of_interest", "establishment"], "icon": "https://maps.gstatic.com/mapfiles/place_api/icons/generic_business-71.png"}, {"name": "ASSURANCES HMAMI", "reference": "CnRkAAAAz4JtsAtPJk3cvKQFQvSBXPdsgMNMxxXPqdQv-tN57d5G5vaqDFv3ORnSblLEsg591o0v00TVXUnKqns_OROfQuhztIuUqPglwN-fTBeljXBzHn-du6IAN2vWxVUOJzdHT2Okv4udZcfRd_8he063LhIQtf5kqdQ0LF8runy8m3_2AhoUSGe_T095xa2lPMQ_bC1MT5MP7po", "geometry": {"location": {"lat": 33.8959291, "lng": -5.543820299999999}, "viewport": {"northeast": {"lat": 33.896116, "lng": -5.543528250000001}, "southwest": {"lat": 33.8958668, "lng": -5.543917649999999}}}, "place_id": "ChIJSd7zcN9EoA0R7HkrAMqr7Jk", "vicinity": "Imm. Jaouhara - Magasin 1, Avenue Nehrou, Meknes", "scope": "GOOGLE", "id": "5ecdaf56da866b8e38da6a1f83d0a9ecb26379d3", "types": ["insurance_agency", "point_of_interest", "establishment"], "icon": "https://maps.gstatic.com/mapfiles/place_api/icons/generic_business-71.png"}, {"name": "Assurances Saad Benjelloun", "reference": "CnRuAAAA0JIzNQEWE7-g6aIBk6GNZHG_qSkIjk18TM6GudqM97abT_-tFu5DqnkaDYPioAp2bZRKniGACnX_8FP170c0YuaAXV83ovMR5cVc_o-LKMzOeUZAqj-XHc7Xrlrczdb8R8C8-d5t7cJMF_n6j4eIeBIQBhZxpDWG8MEM__CBlNHIBRoU6F57cTq8Xo0iHP9_Z9sryvYrQoc", "geometry": {"location": {"lat": 33.9053314, "lng": -5.527495699999998}}, "place_id": "ChIJSdEXX_pEoA0Rnw6Op5DqCI8", "vicinity": "groupe 9 villa 7 boulevard Khalid Ibn El Oualid, Meknes", "scope": "GOOGLE", "id": "9a8594c5969e73b5ea1d271dd4af670b6e1fcea9", "types": ["insurance_agency", "point_of_interest", "establishment"], "icon": "https://maps.gstatic.com/mapfiles/place_api/icons/generic_business-71.png"}, {"name": "Sadiki Wadii assurances", "reference": "CnRrAAAAS_V60v8pQl7S6jLJ8GGvM91F0uxRHq6MzHZx-1-C9yw-Dw2ZqniL9KTVKxRajxwP-zoFko2mAmgOfWJHwnAcq4AfwB33B89INEhBK0UQAtgnl9BtHeLIMFm9-WgjeThdwIe6s9ocQSe1tWV5yewoFhIQe8FNQeE4FOCjbd1i-sq7sRoUkqxH8725HTdte6Z_f93Zabc51TY", "geometry": {"location": {"lat": 33.8872659, "lng": -5.575811}, "viewport": {"northeast": {"lat": 33.88731524999999, "lng": -5.5757519}, "southwest": {"lat": 33.88711785, "lng": -5.575988299999999}}}, "place_id": "ChIJP_yGxNtaoA0Rg8AdLrPt39Y", "vicinity": "Diour Salam, 23 Boulevard An-Nassr, Meknes", "scope": "GOOGLE", "id": "da5c6469f9957d006a8ae9728200470e30d00552", "types": ["insurance_agency", "point_of_interest", "establishment"], "icon": "https://maps.gstatic.com/mapfiles/place_api/icons/generic_business-71.png"}, {"name": "Bourdi Assurances", "reference": "CnRlAAAAR_oVYGaFHMKuvHpRv9uQph5LltcqtcEPAna8HYZ5_V8M_X-aKP72ofQpLvhUymAiGIRp8KlgCIrzoyfSkMnk9lqRW65-0nzW2-7IgSO6SnVE9kIxjv6-Xug-QA8Somp1vvu6hkYyHKbu49DS0J4b7xIQHNUUFVl89e6RbqX_eHpOmxoUU9tZmwbPtZOKPzmJAVqsnLwOPzY", "geometry": {"location": {"lat": 33.899722, "lng": -5.579648999999999}}, "opening_hours": {"weekday_text": [], "open_now": true}, "place_id": "ChIJrdvP0SNboA0RU8CgLUDbb8Y", "vicinity": "rue 9 n\u00b015 lotissement Sfia Zerhounia\u060c mekn\u00e8s", "photos": [{"photo_reference": "CoQBcwAAALw9GQUh8vioK-fkhJ5j8hHOTwdYNgRLkmIVmFDU5V9D31OOLRUovn8uwEhpngFukihZ043mapHydn986pqZt7VwXBKTa3U_5IyLXu8S-zHyNM8ja5q-WxuUSSg1u-n4erYB2lzyORtJO3hTyh35_vYayNkWvU5usBEdQpwc-3qEEhDdPZbZb68s8c2bhQV02gUQGhSX1jT9CA6gv8TEWypyGyF-5803vQ", "width": 682, "html_attributions": ["<a href=\"https://maps.google.com/maps/contrib/104371079683375123957/photos\">Bourdi Assurances</a>"], "height": 701}], "scope": "GOOGLE", "id": "89c48272f72273cfc5b52e926157d251e86be41a", "types": ["insurance_agency", "point_of_interest", "establishment"], "icon": "https://maps.gstatic.com/mapfiles/place_api/icons/generic_business-71.png"}, {"name": "Assurances Al Wodouh", "reference": "CnRnAAAAs9mITMGCHFW3d_Vr-26XMT67jypfsnJWJnvHOfBenZ7S12MebdU5X1lfgDzhvF29nKZ-Z8oOEtEFhlq5m8WgDyGcen52qNyYgbXwzcyF6SyT-wq_lYRzNsBOlcORY3YU1Zh0f7ahaIo9GMleUc2G2BIQ_Sw3azUpZfYyHvH39EmpQhoUsUSycTpmw8DM1ZiDmqT6ziOh4xU", "geometry": {"location": {"lat": 33.8661206, "lng": -5.576193200000001}, "viewport": {"northeast": {"lat": 33.86616125, "lng": -5.576033250000002}, "southwest": {"lat": 33.86610705, "lng": -5.57667305}}}, "place_id": "ChIJ97wYXrlaoA0RJUEcDgBV6iA", "vicinity": "Lot. Rizana 6 , r\u00e9sid. Lahrech appt. 1 AlMansour, \u0634\u0627\u0631\u0639 \u0645\u062d\u0645\u062f \u0627\u0644\u0633\u0627\u062f\u0633, Meknes", "scope": "GOOGLE", "id": "3d628185e2757edba9c8491cf1cdaa745e67b249", "types": ["insurance_agency", "point_of_interest", "establishment"], "icon": "https://maps.gstatic.com/mapfiles/place_api/icons/generic_business-71.png"}, {"name": "Assurances 2M RMA Watanya", "reference": "CnRtAAAAQPvrpi24ITGbgjxP1bsoOUk5yKYKEI2tAS3nDUGAklhTjYYYujbUlnqoN-HxiAFT0fCrNvruftjil05nx-f1vRTIztq_WkrmmhpJDdHpAxXp0wXqcSdueo3J4Cn_jW8u-AZUrUf6t5ZWoJ3vROvC4xIQ4cS4BngAgmjTxa2ZBa7jpRoUfe-QpGg7KrnOujuuV1hfJ2ul-vU", "geometry": {"location": {"lat": 33.859037, "lng": -5.573195}, "viewport": {"northeast": {"lat": 33.85914605000001, "lng": -5.5731932}, "southwest": {"lat": 33.85870984999999, "lng": -5.5732004}}}, "opening_hours": {"weekday_text": [], "open_now": true}, "place_id": "ChIJQaaLaaVaoA0RqwSeGkXFaNU", "vicinity": "865, Avenue Zitoune, Meknes", "photos": [{"photo_reference": "CoQBdwAAACkXuQ7gaL5w036XMOx7WaPEmnWC3FiLU5sgY6xN3EvztE9r03Ue7Y04fh5MGTSvNGXtj_kog0vw0o0RDC54KUIUwsCAotWKqNmvExFnsTRkV6TDB5XrW5bF9HaujQPiWprAsV4R9SYE7_NgaIpPmbnQ5cw8HQwJGnbronyiSSwTEhDjd-wKzc3xAEEpTGO7oVtaGhQxXcj_ubwddRIbcqygaiK7orm7Mg", "width": 1058, "html_attributions": ["<a href=\"https://maps.google.com/maps/contrib/109442362634486209238/photos\">Assurances 2M RMA Watanya</a>"], "height": 1058}], "scope": "GOOGLE", "id": "a45702c18c43711ab7ffd63373c593f93a54ca21", "types": ["insurance_agency", "point_of_interest", "establishment"], "icon": "https://maps.gstatic.com/mapfiles/place_api/icons/generic_business-71.png"}, {"name": "Assurances El Ouaryaghli", "reference": "CnRrAAAAdMltusodVFMI3Vcej-ML-Bf78zPRW_Uq5IspCAEOTuZnGEB7-cHb8ESoh-ipaAxbPn09FlW_qsMiiQvH341uilmIFFQP-FZDrzXStBGHs8SpRnl-0veylLoD5zjiXd723ivq7o81MN5gTCtucz9TWRIQMWZeMWSvbOppDcz6IwqhARoUHRoFM-hh5ElJKol0UBoFKxCpQBg", "geometry": {"location": {"lat": 33.914472, "lng": -5.491471600000001}}, "opening_hours": {"weekday_text": [], "open_now": true}, "place_id": "ChIJL3LzeTxEoA0RThBf1ajz0Ck", "vicinity": "Yasmina, Mekn\u00e8s", "scope": "GOOGLE", "id": "ec1c579d183c2e2783bbfda0d80ae7e59516fa0b", "types": ["insurance_agency", "point_of_interest", "establishment"], "icon": "https://maps.gstatic.com/mapfiles/place_api/icons/generic_business-71.png"}, {"name": "Unagri sarl", "reference": "CmRfAAAA27_UXns4GHwhnZGpceu_nqBFNHmgH13e4cw0WtgCUGTF_fd-ux7FVjG2Z6L6EwVUv14O0wy129MK94qD2cOu4SJDY748oJxoyEt6UwTzzbnMBckuSS2XRqDEWmVovfLUEhDLN52rfNIU2oTTcF704uhPGhQzGx1o-QuPlFppalwpy1DfHdxsPw", "geometry": {"location": {"lat": 33.8963867, "lng": -5.481855499999999}}, "opening_hours": {"weekday_text": [], "open_now": true}, "place_id": "ChIJK9IOldRFoA0RYGuWfMwiYZ8", "vicinity": "Meknes", "scope": "GOOGLE", "id": "ac556cb07b10d3904d8c69fba5d8d7eac302517c", "types": ["insurance_agency", "point_of_interest", "establishment"], "icon": "https://maps.gstatic.com/mapfiles/place_api/icons/generic_business-71.png"}, {"name": "riad ouislane", "reference": "CnRhAAAAiyZvl-Vd2Ky_lATK6stf-35TeYxvKTjYiaHdk5av0IYZSCyAFnXfMwe4Ql2d_6ONVeA0p2x8SVmJhEGqURiSI2byFHMRzwU6LXGtZ0qIDTxbah2rWpZ1FKYTTP2yOb3ndxwIr2tA9_yQ9Msvd3rGthIQflUWRtYT6_skSMkFjA1lQRoU7_D2jFkb9MW9Zp9QwCyEZu3YEn4", "geometry": {"location": {"lat": 33.8996404, "lng": -5.4738491}}, "place_id": "ChIJq6qq6oBGoA0RmZHfvDJ1M8M", "vicinity": "Riad ouislane, Mekn\u00e8s", "scope": "GOOGLE", "id": "6e8cba5a70e82281b65d751d8af9b1cbf5fc68ca", "types": ["insurance_agency", "point_of_interest", "establishment"], "icon": "https://maps.gstatic.com/mapfiles/place_api/icons/generic_business-71.png"}, {"name": "SAHAM assurance EL HAJEB", "reference": "CnRsAAAAZNhG3WnGwVl74XiG-4RfTdVHP9B1dnmdHF4cylxAWak-6S6JI2cBVSCyDivtF98buYydEYmeF3kx7UdnqL4yh4zjhBsR2Wc33u_QNx_0wR8myTf9JidYvSoDlc-VvWmf50lcsslPGwFYR_6n9jjYYRIQfhuCZ6tQT0IasgRc6EEEaxoUaakbXlvg8TeTJHHANu_4koImF3M", "geometry": {"location": {"lat": 33.6863534, "lng": -5.3755653}, "viewport": {"northeast": {"lat": 33.68647970000001, "lng": -5.374294649999999}, "southwest": {"lat": 33.6863113, "lng": -5.375988850000001}}}, "place_id": "ChIJO_MwdEk1oA0RJbhVGF3v9PE", "vicinity": "Rue des noyers, El-Hajeb", "photos": [{"photo_reference": "CoQBcwAAALvrzZ2udnCCMwlA4pESOr3JKCR6TKhjNIufbxK7N3GpdqH9EP0OEDwOvW84_A1440nLsiRjKnRdDyi11e5LoLzGFz-SywWhd8uC2xIvzw8DbM1jg_wEFgLBECswwfI0peCLEqyX_FykM3uem3bYhLryExdaPbTQsxEM2cQR9X1vEhDN7xOCPAEXxEOek_-ENAroGhRNLEegHXiNia0SZ1d64eypLT2mhw", "width": 1296, "html_attributions": ["<a href=\"https://maps.google.com/maps/contrib/118110512689766559046/photos\">Abdellah Bitit</a>"], "height": 976}], "scope": "GOOGLE", "id": "c22e94fe59f921b812a055e617e4e9d206b0617d", "types": ["insurance_agency", "point_of_interest", "establishment"], "icon": "https://maps.gstatic.com/mapfiles/place_api/icons/generic_business-71.png"}, {"name": "Assurances Zouagha", "reference": "CnRlAAAAIwnykA3aAncxrU7K4eswusC46Pcd-8tEp2nYMeucEKjxc5rAG9IkNqy1CrhWwAMEx9RjJpmkMOmdtvv8n-K3uM-DMbRSF8EnUSDNv4b9BAB-lc8pd7toJil74BhexWGZhCrHlUdIKCp9vNeJuECb7xIQOLp3WUpNvkcnAHT6kzRbhxoUopWxXr6KikGuRV_N7KqQA9NJsvc", "geometry": {"location": {"lat": 34.02209320000001, "lng": -5.0377035}}, "place_id": "ChIJvYSxmOyKnw0RF-JaMoM7dUY", "vicinity": "Zouagha, Hay Sidi El Hadi , rue 1 n\u00b01, F\u00e8s", "scope": "GOOGLE", "id": "193bef6f52faf98cb2c373035b9505bcf0350063", "types": ["insurance_agency", "point_of_interest", "establishment"], "icon": "https://maps.gstatic.com/mapfiles/place_api/icons/generic_business-71.png"}, {"name": "Agence AXA", "reference": "CmRdAAAAXPynJD2FY_kDzjI74gZBDb4CS4yuLUhUJyEYMRu1Jzclpr_APMA14OUuLvsVGXyhHQ_jci_uUKGu4fjAfclh-svdser_249y2Lc3hLPCeSi75I0DvMopo80uwMlc9RMZEhAYL9f68qF-li4ohupdtDDeGhR09ixqglINobbSrKudyatoFb5j_A", "geometry": {"location": {"lat": 34.0233526, "lng": -5.036869300000001}}, "place_id": "ChIJrx3hcOuKnw0RJeojgQdQfW0", "vicinity": "Zouagha, F\u00e8s", "scope": "GOOGLE", "id": "7c5252aa0403e6e9988ce03a284a1a4e5e19ece1", "types": ["insurance_agency", "point_of_interest", "establishment"], "icon": "https://maps.gstatic.com/mapfiles/place_api/icons/generic_business-71.png"}, {"name": "ASSURANCE ANSAFIL", "reference": "CnRkAAAArXuUOurrwSSupdlEQ8AeKJCjpCefCNDoOLYJ76wirHUVy-DYdYCQgdZJ1cBPXRAIVcqoC4Lw0LNpT8NSSl19GQ-PRzzdWtvFoD1ZQCbUE-WPKaqf9cqD_f5v2t-ZoF0a8eoT64d206m_KKmIhOzTOBIQs-qUJ9zMAtZus74fkCFeoxoUSESC13JglbAxoewiFe17IXco8Yo", "geometry": {"location": {"lat": 34.0233559, "lng": -5.0368023}}, "place_id": "ChIJk5LWcOuKnw0RII5Z3rGv7xM", "vicinity": "Fes", "scope": "GOOGLE", "id": "39667afedd8ba2e8e6e4fd93d9c17fc6a2c2b440", "types": ["insurance_agency", "point_of_interest", "establishment"], "icon": "https://maps.gstatic.com/mapfiles/place_api/icons/generic_business-71.png"}]}