{"status": "OK", "html_attributions": [], "results": [{"name": "Snack Miloud", "reference": "CmRfAAAAgjSmTZn9dRzEzSUR95D3lS00KtNGKxy48bsm1Aw9dasPvpLs8N3IiQ9abYIkBaeL8ptwUkqLiReJRTtAKLNkdN3uS6_VwjitMZ0K_rKApp37zJdS_FxKxYfZYS7FZkcFEhD3PeyhzgaGT7Iyoqz2G3hjGhT9hxLXtw8VQd-PvEaP_fIwPUituw", "geometry": {"location": {"lat": 33.8927342, "lng": -5.5407035}, "viewport": {"northeast": {"lat": 33.89277869999999, "lng": -5.5406259}, "southwest": {"lat": 33.8927071, "lng": -5.540750699999999}}}, "place_id": "ChIJ5x6ZgB9FoA0R1XpL-rzailU", "vicinity": "\u0634\u0627\u0631\u0639 \u0646\u0647\u0631\u0632, Meknes", "scope": "GOOGLE", "id": "f2cc963558f7745e129e3bb9493084f687b24905", "types": ["meal_takeaway", "restaurant", "food", "point_of_interest", "establishment"], "icon": "https://maps.gstatic.com/mapfiles/place_api/icons/restaurant-71.png"}, {"name": "Meknes", "reference": "CnRsAAAAnl0wmi4BaHMSjyypcWjmzPcAIfJs5Px6KVqAJi0o8TUQm0emVBOWOArpAyakzmsS_IeODt7G6TtaxqkLEvVXHEttYQy913y_3_vEtqDqAfiPfyCP0SkrkZCNBj3f3Plt0TFgrHM_nsa5sRMjAfv1fBIQqnOB5TL_R0mPQMMTsR_2pBoUy1hTTSNs5pBHFsu4vyPKOKcI_gE", "geometry": {"location": {"lat": 33.86731549999999, "lng": -5.5454725}}, "place_id": "ChIJdbTLV0FFoA0Rq5EzbO4oQeg", "vicinity": "Meknes", "scope": "GOOGLE", "id": "011ed89458e699ecf860f9112be4e1fe62924bd9", "types": ["meal_takeaway", "bar", "restaurant", "food", "point_of_interest", "establishment"], "icon": "https://maps.gstatic.com/mapfiles/place_api/icons/geocode-71.png"}, {"name": "Snack Imad", "reference": "CmReAAAACKIpkQRpAKSDchF9NKsU5mser7lJIfAojadPmVxGp0qdgPYYC6uyTA-vdzavKKHFpdPQ75Ki9B45_JTPO3MlCHg6WZKn3csykZHRUZ0XxVYMP-E_ZDx_rIH69X2mT5H_EhALbQewzD9HgXxaHd2vRkrgGhRZFWjJ3pxWD_0voqOu7EOJf1gCdg", "geometry": {"location": {"lat": 33.9944381, "lng": -5.057498199999999}}, "place_id": "ChIJ97C5LXiKnw0R4gzidDXx3bw", "vicinity": "Rue 13, Fes", "scope": "GOOGLE", "id": "5af3ca0566698a4e4942ef699633231147628224", "types": ["meal_takeaway", "restaurant", "food", "point_of_interest", "establishment"], "icon": "https://maps.gstatic.com/mapfiles/place_api/icons/restaurant-71.png"}]}