{"status": "OK", "html_attributions": [], "results": [{"rating": 4.1, "name": "Mcdonald's", "reference": "CmRdAAAAeRttNVwY9xwv_is5SftiNAkYzed2eACkZHlAQRJemfrnffGU6oVuH1oRTFMjg0Vns0rr5v8338GUPgho57brSmDjvHqn2cTTdHwZbf4-kJWQeOHz-JDa6zkkGFVOKfUQEhBN0ivi5seS8u3qSNP1UR58GhTuWq2s1TrJDcaH_j5f6eKibz9_7w", "geometry": {"location": {"lat": 33.8956865, "lng": -5.554838800000001}, "viewport": {"northeast": {"lat": 33.89582785, "lng": -5.554738500000001}, "southwest": {"lat": 33.89526245, "lng": -5.5551397}}}, "place_id": "ChIJa7jtPtZEoA0RG3epUMOZ33c", "vicinity": "Avenue des Forces Armees Royales, Mekn\u00e8s", "scope": "GOOGLE", "id": "932e86b581128be9fda8e509d822e648d5530ed3", "types": ["parking", "point_of_interest", "establishment"], "icon": "https://maps.gstatic.com/mapfiles/place_api/icons/generic_business-71.png"}, {"name": "Parking", "reference": "CmRbAAAAFBUGMXpJJAj89tCl_A-7Ptf1BbOszBDzwm7RWeL2gqnUK0mMO9bmdI6RDIea5QNAgMijIZR_p4OUAMtWIanHqIsq__5E9E7G3JB8pFYJH1rTyw2F_Yla0hlg8hYCpsypEhAL99b0u1QcR3B4PcJG5RTXGhTKx5ZZ7OxMNUIrbBiEcj0LCt8ZBg", "geometry": {"location": {"lat": 33.9053306, "lng": -5.526372500000001}}, "place_id": "ChIJ1by3QPpEoA0RyURbETsRYsg", "vicinity": "Meknes", "scope": "GOOGLE", "id": "97e7b41444284041f1dfc51d0c46d58bcb759110", "types": ["parking", "point_of_interest", "establishment"], "icon": "https://maps.gstatic.com/mapfiles/place_api/icons/generic_business-71.png"}, {"name": "Ville Nouvelle", "reference": "CoQBfAAAAKkkBsnR3cmXfRHcZqsSKYICCDskerNnNWxb9JGeNIf8cnFV0YsP-6Nii6nL-t4KgjWorbGoZZevcJeRLt2eJMFmdA700RQIvR9y3V95y92ZTLsQXQHc-pPkY_jQ5IfOPOZvoYlhi8iSXPuvzdBq6hOeBDs3eWIUA70kNisRbYuWEhAtbiyL9-P6UelkSWVDWBG5GhQE_E0dO5Yh3Wrt9TrLnZeJL93obQ", "geometry": {"location": {"lat": 33.9054909, "lng": -5.5243421}}, "place_id": "ChIJWw58kvlEoA0RpvEKKlxWcus", "vicinity": "Ville Nouvelle", "scope": "GOOGLE", "id": "42abaa7fcb9fb15985e55ae3b267d5f6f582e115", "types": ["parking", "point_of_interest", "establishment"], "icon": "https://maps.gstatic.com/mapfiles/place_api/icons/geocode-71.png"}, {"name": "Ville Nouvelle", "reference": "CoQBfAAAAJgEuCVFodErCsAk4W3vKXCo7HY2AVvIFRplIH36ld2DmurXSrRoCvVQmcHCfDyP5G2LZf7SqzsXGdCaRQYvRFt7rBVLvdeyIhKSJRHBNSp6ij-sMIfeaeVn83JA84bRnfISomM9eDfRnaT2TJ2rlt-I9XoV0LbbPPQTkwtfmU41EhD7Ol3QoOWUqgdpl4gpgcIRGhSRywp09iEvB1bVa__GJQy0NwoKXA", "geometry": {"location": {"lat": 33.9054909, "lng": -5.5243421}}, "place_id": "ChIJedGLjflEoA0R61vqdxQB5sA", "vicinity": "Ville Nouvelle", "scope": "GOOGLE", "id": "ef6383498b313143f3eaf6362a97f756c9736dd8", "types": ["parking", "point_of_interest", "establishment"], "icon": "https://maps.gstatic.com/mapfiles/place_api/icons/geocode-71.png"}, {"rating": 4.6, "name": "H\u00f4tel Menzeh Dalia - OFFICIEL", "reference": "CoQBcQAAAKI1rEqaor8jg7PJENb2OR09EajuhO6-PJzXyzGT53X_jVzVYDFae1IzDHs9qWCea8BMcFWbuIohFu1uEQjLLGdhqjrF5qU7iZSdxg6KyFF_JcAZFZxxO7h2ydNOTTtSfpUAyITlvWEwNmYCC5esOTFx6d_C5BGA0Lrsm1heDY5kEhBu43DT5vmeEoviLCL4y5mhGhQhomEJtjoxFDmnoWWduEeLXXzuoA", "geometry": {"location": {"lat": 33.8571503, "lng": -5.5863953}}, "opening_hours": {"weekday_text": [], "open_now": true}, "place_id": "ChIJVaJUkvlEoA0RpiPDZzq9fk8", "vicinity": "Domaine Izmar N6 direction Rabat BP972 Proche de l'Ecole Sup\u00e9rieure de Technologie de, Meknes", "photos": [{"photo_reference": "CoQBdwAAAJHCtz5KK65Eh5WIQs5IR4kB0_1yORB_Q6yN1b86EsSr3W9_E-jTL4pGyG0bUc0HX9G0wrFYBQnFYRw6tut3YhHZfNbyAe_IKY1XbrCx6Arjo3_yMwXG3oozXiUokV_SxCpZMKK1HnfHi_2F2EmRaoK_0HISaTe-MOfCQ3xBeVIbEhD-gCa3F8uIFcl-0QmgpN2pGhTLvfA_qVW3QcuNS2pwYxrNU6ID5g", "width": 346, "html_attributions": ["<a href=\"https://maps.google.com/maps/contrib/105468669580359464596/photos\">H\u00f4tel Menzeh Dalia - OFFICIEL</a>"], "height": 346}], "scope": "GOOGLE", "id": "3e1097a202f3e2b3990930c9123d7dd45991a5b4", "types": ["parking", "park", "night_club", "bar", "spa", "lodging", "health", "restaurant", "food", "point_of_interest", "establishment"], "icon": "https://maps.gstatic.com/mapfiles/place_api/icons/lodging-71.png"}, {"name": "Meknes-El Menzeh", "reference": "CoQBdgAAAIJVf89Ng5OVnzdBWqF5RCn1vm-wilJr7Ul63g-DL54kmTq90xd1HLjKvr4R2jqqgK6x39hj9bx9cmgPt94pUBi3U0S80puSOaZu927RwfrFQcrtxXzrJy6QENVStNgRHEkd7nqOGsT2HGekD9xUnDbWiGBDnTuDE1MXr1aGmJZGEhCOmWDfgJrq1BSeF6NHoVkFGhTmEN4rlPriC-eZBkw5ksoe0Ecoig", "geometry": {"location": {"lat": 33.8408799, "lng": -5.464888200000001}}, "place_id": "ChIJcXDF_LpIoA0RuOwBhYwyYbQ", "scope": "GOOGLE", "id": "449224c43340fe20364ac9c8948c6b1c2857aab0", "types": ["parking", "point_of_interest", "establishment"], "icon": "https://maps.gstatic.com/mapfiles/place_api/icons/geocode-71.png"}, {"name": "Meknes-El Menzeh", "reference": "CoQBdgAAAAkwlx6cL4uKZehES2xMJ1zfh-c8Y-26fE4TA_kg9HXVTWj79ahDJmmYcvF6EqBQdnlzBtljnzxRS1GDPWmMFcsPJ8M4m6bAi2VEB-ZjFOOd9dbByPr3hMvqUiSdG30Vi4bc8BwUy-bXajdXf0oJVlNfKcS2eGrEZmmPeUWYhrqpEhACeYd4Z-70gz7K6g_vG-YEGhSVki6w8HhlOdb-l1EWmXZdWRoR0A", "geometry": {"location": {"lat": 33.8408799, "lng": -5.464888200000001}}, "place_id": "ChIJcXDF_LpIoA0Rx9M1tDKpO0c", "scope": "GOOGLE", "id": "31f826ece56959c8becfdf2ab632f04c0a759d95", "types": ["parking", "point_of_interest", "establishment"], "icon": "https://maps.gstatic.com/mapfiles/place_api/icons/geocode-71.png"}, {"name": "Parking on Road to Volibis", "reference": "CnRuAAAAvvSSV6Lg7ECCDDFJ99PYIHbGFT5nUPIFf0i9I9xgjWU5enD2hn5z75G6tjB2N3vhmUGt1aMVA5W9spQEg60YmLwfqqGiq6tJWWYo3u5-qpr03yDrueZYWzL9HccMbmXVKwD1MnxZcG9273foSZY6RRIQc5G0ZC7OEAY2Y6s2yVtrphoU_TquIwnwwLD7PJkzppjR4adgkGM", "geometry": {"location": {"lat": 34.0719599, "lng": -5.5519098}}, "place_id": "ChIJhx-ZWn1ooA0RLdGf1jbnQro", "vicinity": "", "scope": "GOOGLE", "id": "ef8fd379f27ac983384d6747864eb431aaa3259a", "types": ["parking", "point_of_interest", "establishment"], "icon": "https://maps.gstatic.com/mapfiles/place_api/icons/generic_business-71.png"}, {"name": "Parking", "reference": "CmRbAAAAE6YNhucWiixTVPGY3dvRuOIFdKqI_K2AVBZdhjzmdhiwWY4Qx1U9qgSFf4gu28p31zawlvBgdGp7hLtR062BFBpPeFHu6zcRGayt9g16_u0SZ66cT8FcKPDCnXldo5PIEhB6A1kNmh5CNkOTVeyiFbcnGhRAxtTeByhT5CN6gjMTuF0QJWwoTA", "geometry": {"location": {"lat": 33.6451038, "lng": -5.588768699999999}}, "place_id": "ChIJhzPMJBetoQ0RBUhkNQ9vk8o", "vicinity": "Agourai", "photos": [{"photo_reference": "CoQBcwAAAC39gKM1r8R8-lPr7b3DMxeVI8LWFy2rjTYQ13cq8Q0eX-sx662zTag6rIRmAvrgXEwhsU3cba2IatG4EjAXZ2_sCukBPiWQexPqu0zeNWdgx8W4Fharz1__EIzRZAKNL1X9Elc1kWXxQzX9vx5aJabKHmRn2oCi7sO0IvqAmEHHEhBMrE9HBjHqg9_Q2RkWUw6MGhShTsIo0uwdkgOLA8gkmIvGMB4sMQ", "width": 960, "html_attributions": ["<a href=\"https://maps.google.com/maps/contrib/117855377196071654675/photos\">Jaouad Elaouni</a>"], "height": 1280}], "scope": "GOOGLE", "id": "97feb7f8bad4d1ab0250d75f8575b021016d5581", "types": ["parking", "point_of_interest", "establishment"], "icon": "https://maps.gstatic.com/mapfiles/place_api/icons/generic_business-71.png"}, {"name": "Parking", "reference": "CmRaAAAA-Fy8cQQ4kaM_Cqh87i9_83XLIpJ1zx3sshihBDdWWupNrn64NTyQcnpij4x1HPoMQKd5vrYkijUr7Ym-UM5zYNXkX9Jer9yfBI9mwYSDGE2yg3b-E7LKLj0AtuXmrfyyEhAny9MnXsR2LmJJik7R91jbGhQNJNCUBx6ESXXlZfCG4E4bAie0DQ", "geometry": {"location": {"lat": 33.93297099999999, "lng": -5.2185255}, "viewport": {"northeast": {"lat": 33.93309535, "lng": -5.21850445}, "southwest": {"lat": 33.93292954999999, "lng": -5.218588649999999}}}, "place_id": "ChIJhW7xybckoA0RKHNeOVnYch4", "vicinity": "R716, Ain Taoujdate", "scope": "GOOGLE", "id": "59ac0d47926e89ff9d0c8dbed433b5abfce284d1", "types": ["parking", "point_of_interest", "establishment"], "icon": "https://maps.gstatic.com/mapfiles/place_api/icons/generic_business-71.png"}, {"name": "Parking", "reference": "CmRbAAAA3ZHOPhFLCu2SmZf77wJpSdBtv--Z5WAxLy0hnCqj7YzWjFvATHEY7U4adOS4XWUA3UqgSX74BEcVqtyNv8j3VcjvBcGkzp7yWvefm6OoaKGh6mjjgD4ManoLBiJ9u5l4EhBluw0YfYZuEP08xoHs79ErGhSete41rxfhojT0nLZ-4GgBBf_JdQ", "geometry": {"location": {"lat": 34.0885459, "lng": -5.1792491}}, "place_id": "ChIJkRff-f0YoA0RYEAJdUPNjIo", "vicinity": "Moulay Yacoub Prefecture", "photos": [{"photo_reference": "CoQBcwAAAK8nsqAsn5m6RrpUn4dlE9txzcGCIy51ufXDwH3-ZONdB4yCifThNcs65_mbsuwul1JstWEjRZOegbkyC9Z1y60dxF6X5uvIVzPyWlsaXH68FLPGVuUwDTMcS55rq8hc2JLbNx_4HrBgSj6_R6FaBZXZdQuf9J69jhEpL2TCKROKEhCq1ORoDCD8GQ2K4VJcXtW5GhRQx4AA3uPVG6WO2s0W5YRQ5rzT-w", "width": 600, "html_attributions": ["<a href=\"https://maps.google.com/maps/contrib/109839475997018302826/photos\">Alex Bego</a>"], "height": 600}], "scope": "GOOGLE", "id": "6bafd43eef7e56c8d59ff1d17972fbfd928f00be", "types": ["parking", "point_of_interest", "establishment"], "icon": "https://maps.gstatic.com/mapfiles/place_api/icons/generic_business-71.png"}, {"name": "Parking", "reference": "CmRaAAAAXh3AQy3W0MWM1ocJoSVkcrUb-QAYbF6c_IpCCtlqy12nwVapjo45gC78PF2ZNOqi3suEo2CLZejHEfWlX779bx5CkQhyTt5DusncsP-uS1Vvur9UQuzC7nEvwwGEQ52GEhDUH8By5t5ZhIbgGO4nFXkZGhSVaUCzArvUf1I52OwTKj7eBMW6Kw", "geometry": {"location": {"lat": 34.0152837, "lng": -5.031912599999999}, "viewport": {"northeast": {"lat": 34.0154985, "lng": -5.031876899999999}, "southwest": {"lat": 34.0152121, "lng": -5.032019700000001}}}, "place_id": "ChIJmw13uvGKnw0RCd1xowv0hmE", "vicinity": "Rue 26, F\u00e8s", "scope": "GOOGLE", "id": "7bc23e098d9c790af4d7d74c8b6028ba0769a7a4", "types": ["parking", "point_of_interest", "establishment"], "icon": "https://maps.gstatic.com/mapfiles/place_api/icons/generic_business-71.png"}, {"name": "Parking", "reference": "CmRbAAAA-e_B8uMlFeOsOagOGU1PuoB31Rho8USPTh7hpY0Jb9OYG2T4jq8JgaXjwZuV9pOklZfE0amAH5v8Xs4nr4cbVY6NP6C1dj4D5gi8gC8gylamkcIc7f5_wBRlaRV3h8blEhB1BOXYno0vb-iV8yHACXu7GhTXa8XxI7H28wo-jstZu_fJjkjjJQ", "geometry": {"location": {"lat": 33.990751, "lng": -5.019528899999999}, "viewport": {"northeast": {"lat": 33.99141205000001, "lng": -5.019494099999998}, "southwest": {"lat": 33.99053064999999, "lng": -5.019633300000002}}}, "place_id": "ChIJq3advUyKnw0RYoKS0YKa5pg", "vicinity": "Rocade sud, Fes", "scope": "GOOGLE", "id": "d29367323c96a64b33ea38b5514bdb9480c993c7", "types": ["parking", "point_of_interest", "establishment"], "icon": "https://maps.gstatic.com/mapfiles/place_api/icons/generic_business-71.png"}, {"name": "Parking", "reference": "CmRbAAAAa2whCyE5KQocBX25kTQpXWHJYO7bowYl2nmtyZ_-JKcHDl0NZ5kR2M3Mayumo7pTQcaaLtXOxbAigyo4EsI0Phh4HhNMDA4d4xKozfYUcJdE-ZuOIthGGdVfwuxgdlYVEhBdpwGrITTr1bKfEMNjLCM-GhQPcGKSjAJwQRBpAuMrcEV2657Kbw", "geometry": {"location": {"lat": 34.0486503, "lng": -5.035536299999999}}, "place_id": "ChIJSYeWFsuKnw0RtgMxN1x9MbM", "vicinity": "Fes", "scope": "GOOGLE", "id": "e2c4f9d2cfa7df2c12397dc24c9eaf683e5b6c75", "types": ["parking", "point_of_interest", "establishment"], "icon": "https://maps.gstatic.com/mapfiles/place_api/icons/generic_business-71.png"}]}