{"status": "OK", "next_page_token": "CqQDnQEAALdjyrSITDcM2GP0LE2YqT0OWEB9nrzUgj-s04o1xRxoHQYZ88E5WW68Vz_i414RaobfWLs7ZwRRmS19NOp5h0O-d8XD2s2BIupgyiswSnLjIO9r6pTtq3orcXMYxyPRNyCsfDARx-udPa7hx_EQAFHf5V0b8nlpI95lO4UoL-nak7n0bxxKeViT3NAdxbk-OI9PO9gCotMBVpE4lMBdVkc_CYVKqoKrGwwEWUyYCSmCwcfN_z7HiyVNnyVQNKlW2GNghmdHTfSpLZNztks6hmGmCYrCokNnhs4KRO24meVfoHLV_BYwtiZ5a2KV5Z4nDc8mXefnPvQEYmrzyp0HihkTlrgs62FPirgHlIsmSx883pFiSrkKkjTo-HmfvaWPgrGQ_M6nuoME3A3OkobsMLI62_kp3wlM5d6_tE2qTZMHlxkXs0L36Cx23u1xmvZ4zSfxOvXrq5aLL-yfunLdAKqqMXJGqpFrllAFHAAWSQmlwqBLeRrn_vUPA9rXHGJ88OWUmD6Hcv6w6HWpzIatGLRKFgnbBg6JfIvdm56I0TOcEhB3pJgLYZC5VYvz6TZxg3wBGhQJv73Ys4itlSFEZgczuDzC9SHl1w", "html_attributions": [], "results": [{"name": "Pharmacie Cormette", "reference": "CnRlAAAAEV1Yy5BUqjjoG5h2dYh_x1W7SVpe81fuHff6WW-lqHYTlY3dQYsDoNnJYUuYgi2wF0fVarKS1DPo5z1f72rkfFXbSyCQzCQiejJl3pXfs2H2dPcHPEw0PEYJG90ckAWZOsjzQafOUojInzOEjJM8FBIQKgg8pjdT-OQ7cemjnk9bXRoUBSFXqlfqbeUKkcWKNQ0i0vOQZTQ", "geometry": {"location": {"lat": 33.894082, "lng": -5.544582000000001}}, "place_id": "ChIJjddyliBFoA0RrcE6lkNo-0w", "vicinity": "10, Place Dr Giguet, Mekn\u00e8s", "scope": "GOOGLE", "id": "46aa83a708204b1deddf66bc18275819401715d2", "types": ["pharmacy", "health", "store", "point_of_interest", "establishment"], "icon": "https://maps.gstatic.com/mapfiles/place_api/icons/shopping-71.png"}, {"name": "Pharmacie Iraqi", "reference": "CnRiAAAAS02iR4ylDM9RHAkClbYE1edNTxBnOC4UKk-IdQq9IOqfztWS33LveZ8FhWuicqsTjGADPDyrr2FacIp5ju9zQMgxkAuqhoHGImzBAOUOx8nS9X1isJxJx-UdzTByKQAsPCxVrD0dME2wN3qhDNV_lRIQycuACQff1AAoou0OSGDLzRoUtu9nTlT5bLpCwkAG7KDMVsXYqWM", "geometry": {"location": {"lat": 33.894082, "lng": -5.544582000000001}}, "place_id": "ChIJjddyliBFoA0RoHai1fNEBTM", "vicinity": "Rue Essadiyine, Rte. Elbassatine, Mekn\u00e8s", "scope": "GOOGLE", "id": "9adcb490c4fcf48b2e2ea83eec8992142a67ca6c", "types": ["pharmacy", "health", "store", "point_of_interest", "establishment"], "icon": "https://maps.gstatic.com/mapfiles/place_api/icons/shopping-71.png"}, {"name": "Pharmacie Des Urgences", "reference": "CnRpAAAAeOhnBQY3pgIM3blyRR6L2vEQ-aaJ9Ern8ISFi0N8XBXSarTdY_UU0HIyh12JJCTIsfMYq_bNn1HiBVb_YKTjqwybcVHuz3pLMOVVDMyjFj1Am_dElLZ3igYKJLJKCRa3YPugVnwt9XF4yPwqK5odmhIQrEmaH_RyEPAeuNLCJxFb0xoUtHxhuFQ85PzZqsx3bo_vIeevNa4", "geometry": {"location": {"lat": 33.899759, "lng": -5.539219399999999}, "viewport": {"northeast": {"lat": 33.89979520000001, "lng": -5.539161249999999}, "southwest": {"lat": 33.8997196, "lng": -5.539282649999999}}}, "place_id": "ChIJ42kYweBEoA0RJrS_VbQVUy8", "vicinity": "Boulevard Yacoub El Mansour, Mekn\u00e8s", "scope": "GOOGLE", "id": "de551190d9f881d088ce93ec39d1be783e988ac0", "types": ["pharmacy", "health", "store", "point_of_interest", "establishment"], "icon": "https://maps.gstatic.com/mapfiles/place_api/icons/shopping-71.png"}, {"name": "Pharmacie Sebai", "reference": "CnRiAAAA6fQgITcYrvAzBMXs7D1XDbpGYEQ1wCMWPVThRwG_NB-KXkJVpz_8sLsutUrkhIFF2ZNINMaWGxWP6WmF2paCS2DCzRocWijag_5dB0cDpoA16Ms32bjYHaQid7M81-OidZRFvBnUbWVUVOvniUXPlBIQoVrau1BzfOpeNSOWU5zJvhoUnCVy6Zd0mUlqI8VfIDtYOPYqlDU", "geometry": {"location": {"lat": 33.894082, "lng": -5.544582000000001}}, "place_id": "ChIJjddyliBFoA0Rbr1WCqZMOR4", "vicinity": "Al Mansour Lahdim, Imm. B1 N\u00b03, Mekn\u00e8s", "scope": "GOOGLE", "id": "74b013fff6062fcb481f05994229358b738332b2", "types": ["pharmacy", "health", "store", "point_of_interest", "establishment"], "icon": "https://maps.gstatic.com/mapfiles/place_api/icons/shopping-71.png"}, {"name": "Pharmacie de paris", "reference": "CnRmAAAAkI6FGCHRI9axuat0Wv2P--whzHg_x780UCpMRDXi9svS8jDzxJ_fNgMPkReTXGQgFB7p2VaDH2PqDeTkem7R32pHcw2Fk8pUyy2KdFffvjCA5variJe-T2O6as0BAX_0WbQdebSX9C3uMNacXYYm4BIQuUpE8HpUfbdjz1lh_Mf4exoUOI0qtdNxPGNUHjsdlcQCnbCwB8E", "geometry": {"location": {"lat": 33.89714469999999, "lng": -5.539340999999999}, "viewport": {"northeast": {"lat": 33.89718474999999, "lng": -5.53929275}, "southwest": {"lat": 33.89713134999999, "lng": -5.539485750000001}}}, "place_id": "ChIJLxMVQuBEoA0RoJhGGeUqtPA", "vicinity": "3 Rue El Mouahidine, Meknes", "scope": "GOOGLE", "id": "af640ce291f83312a9c38ffb11dac97be186f4ac", "types": ["pharmacy", "health", "store", "point_of_interest", "establishment"], "icon": "https://maps.gstatic.com/mapfiles/place_api/icons/shopping-71.png"}, {"name": "\u0635\u064a\u062f\u0644\u064a\u0629 \u0645\u0648\u0644\u0627\u064a \u0627\u0633\u0645\u0627\u0639\u064a\u0644", "reference": "CoQBegAAAHozfNPaJfAu74U7WsRn5O6N5k2r6AsRmoRmXUVQfq6FnvwpQ3EQ75KbmnxO00bIdJKczd2-mnpQCf-RX1gpsi3WxMtcFe_dQ9S38wUcdsEYA3QqxLt7WWRs_j5vTJHED5yGcsh146VKBXzjnNXJyqjhbFQdZWPSvTsKmzWX8T5MEhC8h9L5sG9O3w-EaA1Px1CUGhS1j2G0gYf-RXeor4WgOlYuBbNNDg", "geometry": {"location": {"lat": 33.90147289999999, "lng": -5.538678099999999}}, "place_id": "ChIJC9O3L-dEoA0R7lAz3X5t0dU", "vicinity": "Boulevard Hassan I", "scope": "GOOGLE", "id": "2e61b505995141be5e36668346756cd22f0191dd", "types": ["pharmacy", "health", "store", "point_of_interest", "establishment"], "icon": "https://maps.gstatic.com/mapfiles/place_api/icons/shopping-71.png"}, {"name": "Pharmacie De Bretagne", "reference": "CnRpAAAA45oWqcfO1XWwoVTYGzaQGrGrqAKC6h7JKZrq93Jdi_mFnkUZE4c7olKa5euz5GV8XsvOl7HlOPx65ZYK_m_0rgfIqs2bg17utaRmEoyHT2snma8mbZNqDqcYI-d3B5IfLtWStP26oLWGNq9YSsQ_bhIQUJsRaQjVsndoQBRJdcAQpRoUXk8yIHQNs9fyAsXI6WAEc4Naamc", "geometry": {"location": {"lat": 33.8941026, "lng": -5.540657800000001}}, "place_id": "ChIJ1XhX7OhEoA0RBsmnkLfO25c", "vicinity": "1, Rue Bandoeng, Mekn\u00e8s", "scope": "GOOGLE", "id": "05a60d96af04368d0bfaf8294c400e4119288ed7", "types": ["pharmacy", "health", "store", "point_of_interest", "establishment"], "icon": "https://maps.gstatic.com/mapfiles/place_api/icons/shopping-71.png"}, {"name": "Pharmacie la reference", "reference": "CnRqAAAA-VED4FgVze0_2Nz0VV5M2jHO5l7eptbHFuxwuVnQ31LfOvDYH-ocy5nE7lzrj7S9F-n10nCgznzfWNhDQcx34vd9M8zBXSYgYnzT6qxyeIcRQ0pXpkkN8OtbN8eHC0UPM556hEFZHW36SYKyu1jz2BIQ_Qx2qqU-5XNDZv2RS-33dhoUK3ltYLPVUyU4zkiv-haki4jJMR8", "geometry": {"location": {"lat": 33.9086141, "lng": -5.551196299999999}}, "place_id": "ChIJIZznf8VEoA0RuDkouZ25CKo", "vicinity": "Boulevard El Mourabitine, Mekn\u00e8s", "photos": [{"photo_reference": "CoQBcwAAAN1Xa25ZPsU1DDPmGI-M7uvmVBsURtB_PIeU5pPPLCeyLCeV_1NVhIG5SUNDaoSATkOIbrHUfHhGz94JYvK6VAVx5XEEhJhiztTCkEDXcPFW4lvF6zCPZBcTekS8x0gSEt3n1fmFFVh72EfsBXpp2xFwMgyCE5DgqrqcG2Sw5LzNEhD-KhWlIbEFl6Y_AaPb3QjlGhS1xECh_GKra9OQcwY_9LUoDMDQgQ", "width": 2448, "html_attributions": ["<a href=\"https://maps.google.com/maps/contrib/103453582803888220400/photos\">Hicham Zemmahi</a>"], "height": 3264}], "scope": "GOOGLE", "id": "df1a177be16500c67e78559fc762e54463a21a33", "types": ["pharmacy", "health", "store", "point_of_interest", "establishment"], "icon": "https://maps.gstatic.com/mapfiles/place_api/icons/shopping-71.png"}, {"name": "Pharmacie Boumediane", "reference": "CnRoAAAAFUs5q0IxbMK-sxrsKbez2JUHae_NOsoc8o0virF2IyfDIN-C0EpK0rRtyb2KbLNOegmAbPPMKXIH5CPBygx5KbwdkGL6PQpxeyf4iwMYwnZ-t4y-Ppu0n962N6jWT3wpo4jpdnMZcsbtqLOMfXtU5xIQJ8Or1SpCAyTruuj-P15XGhoUuKKSpIbAn9__UTQNLZal1raTiiM", "geometry": {"location": {"lat": 33.8948337, "lng": -5.5389366}, "viewport": {"northeast": {"lat": 33.89484495, "lng": -5.538901200000001}, "southwest": {"lat": 33.89479994999999, "lng": -5.539042799999999}}}, "place_id": "ChIJzVWq2x9FoA0RndYGfD_U-Pk", "vicinity": "Rue Ibn Khaldoun, Mekn\u00e8s", "scope": "GOOGLE", "id": "87747de6107905d592a228ab1cedbc3e4feccdeb", "types": ["pharmacy", "health", "store", "point_of_interest", "establishment"], "icon": "https://maps.gstatic.com/mapfiles/place_api/icons/shopping-71.png"}, {"name": "Pharmacie Rawnak", "reference": "CnRkAAAAgOHv1Kxuk9QlMAO3KeNuoAH02IIzyHS8xPP-xcOfRq7sJg9dfySgwcmm3B9X21gI3gkNs9mIjs21psDiMEib6LFvXOwuxaviefCwSTChAR3V5sswcN2F2mvHmKO7yEKZTmAJak953dpg3SMpjTr7sRIQADMab_BuEQnitdfMb_eR1RoUmhuCAqS3brpA3CSRIyXTuveldFc", "geometry": {"location": {"lat": 33.89794699999999, "lng": -5.536709999999999}}, "place_id": "ChIJS1o_n-FEoA0RczNmlcnZgdo", "vicinity": "45 Rue Jamal Eddine Al Afghani Ville Nouvelle, Mekn\u00e8s", "scope": "GOOGLE", "id": "ec21c7dd91091d6522b706363d27b927d11a9701", "types": ["pharmacy", "health", "store", "point_of_interest", "establishment"], "icon": "https://maps.gstatic.com/mapfiles/place_api/icons/shopping-71.png"}, {"name": "Pharmacie mosqu\u00e9e", "reference": "CnRmAAAAnlYycnlbWpGIuSU3_mKbb_qRK4UH0s1GmkWxIUDidEN6pBbeU6DVaUOBgV8UoryzNYYKQCrlSZ_Etd8zh1JpvT5uiMCVGob8oIvMRQlqFTKwBd0qyNx6o2RxUhK9lmOcULCE3NOtcLLOFI254OAQXxIQRMFXJS3qy6C5iHKDEtsjTBoUMq7X7WZHIUjDpggcQXhTKhBq2yc", "geometry": {"location": {"lat": 33.8978572, "lng": -5.535505400000001}, "viewport": {"northeast": {"lat": 33.89814205, "lng": -5.535492350000002}, "southwest": {"lat": 33.89776225, "lng": -5.535544549999998}}}, "place_id": "ChIJqTNch-FEoA0Rc7qJKwr2x-w", "vicinity": "Avenue des Forces Armees Royales, Mekn\u00e8s", "scope": "GOOGLE", "id": "c325a606e3e1dd804d46703d25a576c9954c122c", "types": ["pharmacy", "health", "store", "point_of_interest", "establishment"], "icon": "https://maps.gstatic.com/mapfiles/place_api/icons/shopping-71.png"}, {"name": "pharmacie al firdaous", "reference": "CnRpAAAA7GBrTO6hhtO9J_dKl8N2KViEOITLURFqko1YL4ZxFOFTpoofzYtZ5JTVtVLlE9gEk9z6DDEC3v_66eERcO6SbSHXGBpkW01DrGGi_af3_D8Ki9nBuBC8ogO6qOY8HKpKKbNRi85UQnJZwe2UcG3RLBIQpt6e5SR1yg3b4jZ-KC5GPBoUZfBSmrHOH2BXlfww3cepWOLYXjQ", "geometry": {"location": {"lat": 33.907614, "lng": -5.556854}}, "opening_hours": {"weekday_text": [], "open_now": false}, "place_id": "ChIJ0W8w2s1EoA0RXN-GvkpIW_s", "vicinity": "Agence Urbaine de Mekn\u00e8s, 13 Rue Pasteur, Mekn\u00e8s", "scope": "GOOGLE", "id": "1846b12b44e45a5d38aac315a921f03c25f49cdf", "types": ["pharmacy", "health", "store", "point_of_interest", "establishment"], "icon": "https://maps.gstatic.com/mapfiles/place_api/icons/shopping-71.png"}, {"name": "Pharmacie Nationale", "reference": "CnRnAAAAJfY_oapY3l9vLh-E6FFZ-28VUaXKlCgts51rhDwlXu5hsIUozURDop2G6JdoNMZfWXNB5PUbL9aYX2FrnSBZF2cBljSekgCp1hBgMGLWmKXSuTmZqDbwoPh9gGgM5kSy_63yLsYMxPhwfK9Up0keZRIQQ_DDF63qzmEwC-R7mMCktBoUbTF71S4u8sSJIsZ1Zzn5FCrTuhg", "geometry": {"location": {"lat": 33.89309720000001, "lng": -5.556201300000001}, "viewport": {"northeast": {"lat": 33.89310080000001, "lng": -5.555472449999999}, "southwest": {"lat": 33.89308639999999, "lng": -5.556444250000001}}}, "place_id": "ChIJcWBCiylFoA0Rl3cQv0J9Vbg", "vicinity": "Bab Bouaamair, Boulevard El Mers, Mekn\u00e8s", "scope": "GOOGLE", "id": "ee287e37b783c7f9ed027d1fca59a84305f376ca", "types": ["pharmacy", "health", "store", "point_of_interest", "establishment"], "icon": "https://maps.gstatic.com/mapfiles/place_api/icons/shopping-71.png"}, {"name": "Pharmacie Al Irfane", "reference": "CnRnAAAAPvQAXrks5QImO_EX068ARqmllzfwvOJnl_ylOPhJMnu62mL7am3gFzjQsk_zVpJDQjxNPXeO501DItI4wUYXWingKcSRXGMv7pDEt6XV39Bd6HM4q6BB12b6GEYg8cZm-qtzh1tIdSHu0iBXHPq5shIQh7KWYcoye9jFwe5qkUa0wRoUfWS6t1biN3s8nxeRbBEWagoAvNo", "geometry": {"location": {"lat": 33.9069687, "lng": -5.5588115}}, "place_id": "ChIJ4UD9oc1EoA0RUV-GMLNZ7Ow", "vicinity": "Meknes", "scope": "GOOGLE", "id": "5bda0f533f662fea87315246593c5f56181a3f4f", "types": ["pharmacy", "health", "store", "point_of_interest", "establishment"], "icon": "https://maps.gstatic.com/mapfiles/place_api/icons/shopping-71.png"}, {"name": "Grande gare", "reference": "CmReAAAAussMTgLKYae9QD-EzuDiDhpQMNfuBJWtoHTQu7-82jdwLhzIVZxRrijxzRNUsU9V29pd_fiVKR0sqMeOQkES2PyJthEUl8U4eSIK41XBGL5jfrTMhYxyOM9KL-lCl4SgEhC7AGCyPalxIuClp4IeGbeJGhRWe7HMfQoz4rfOTaEU1inmeiOHEA", "geometry": {"location": {"lat": 33.899931, "lng": -5.532396700000001}}, "place_id": "ChIJwf0ac-NEoA0RIX6QUm9DzTo", "vicinity": "El Menzeh, Meknes", "scope": "GOOGLE", "id": "48f79e2f40c67a450a3ac07ec49a391af4cb488a", "types": ["pharmacy", "health", "store", "point_of_interest", "establishment"], "icon": "https://maps.gstatic.com/mapfiles/place_api/icons/shopping-71.png"}, {"name": "Pharmacie BELAIR", "reference": "CnRjAAAAD1TD-tw1YwX-A1xydlCYRdZ-j3jCjFXr6jsDds2z9o0H53CkMfZIX_Yd2_SFk-gOQBn-Ed1-VLE2dKdkDApiOYJ2i9nvSEYqYqdAOxp93H4fcHsJFM4T1lRjlEq-gcVTQbOlY3iuJhnbfZkSd2XkKRIQ0PA53vlkqAgLBHDDuH-upxoUBkSiZHzLvYCLMlLZr6tv8ZYZOho", "geometry": {"location": {"lat": 33.9024811, "lng": -5.5320749}, "viewport": {"northeast": {"lat": 33.90255505, "lng": -5.532035199999999}, "southwest": {"lat": 33.90245645, "lng": -5.532194}}}, "place_id": "ChIJ1z1XkuREoA0Rzssv6a-1T30", "vicinity": "Avenue Allal El Fassi, Meknes", "scope": "GOOGLE", "id": "b0164b44a00db94c225a215d928d25e9b5cb34dc", "types": ["pharmacy", "health", "store", "point_of_interest", "establishment"], "icon": "https://maps.gstatic.com/mapfiles/place_api/icons/shopping-71.png"}, {"name": "Pharmacie Israe", "reference": "CnRiAAAAqPbf62Oo0esDJZJqW35Y2ve8Zp0pyCQ18JciCJFcdGKHt0S_Tj-Npgw-lZtU7niZYGI4JkNYAt_vQR-xc9tqAG1UgFusBUC1jCJCMlzldzGqCOSH0ke9EgnX7f2K9Zb3XVV57XaqT2wm5pA2OWCa-xIQxKg0v-3il-hM28Q8npC_DBoUZnOEx3OSvE57qaF2MgG_dNSGLmQ", "geometry": {"location": {"lat": 33.8923357, "lng": -5.5347705}, "viewport": {"northeast": {"lat": 33.8924299, "lng": -5.5347676}, "southwest": {"lat": 33.8923043, "lng": -5.534779199999999}}}, "place_id": "ChIJITrpMRxFoA0R365ongsRpwk", "vicinity": "Boulevard Essaadiyine, Mekn\u00e8s", "scope": "GOOGLE", "id": "ce3843f487c238795a1d9ec38ce820c423a9d8d5", "types": ["pharmacy", "health", "store", "point_of_interest", "establishment"], "icon": "https://maps.gstatic.com/mapfiles/place_api/icons/shopping-71.png"}, {"name": "Pharmacie L'Oum", "reference": "CnRiAAAA6u5WeLu2BVPYZMKy6AnxB6F646sMSxZoep18V3sQDxL3rk5E8sLVfDK9C-JRAkblJ1ubjaO_lDDJvlRF0Xb-emEJw9PZnxFfEWJ54SXRMYonruE9JPM77g8Cun1X6M9tkmb2LbsxTOymtrVpUwfkcxIQd3BW7628daf8AGLMRfyNRxoUez3pmjN96CAnFNDut_0Btg_k0lw", "geometry": {"location": {"lat": 33.90213, "lng": -5.530041999999999}}, "place_id": "ChIJxYilTftEoA0RoiYqCMdaKX4", "vicinity": "1, Rue Ibn Zoubair, Rte Mly Driss, Mekn\u00e8s", "scope": "GOOGLE", "id": "04a89e527216a41fe061bc8070dd2b93f76512e3", "types": ["pharmacy", "health", "store", "point_of_interest", "establishment"], "icon": "https://maps.gstatic.com/mapfiles/place_api/icons/shopping-71.png"}, {"name": "Pharmacie Takadoum", "reference": "CnRmAAAAlM5lz_9x8dUQHyKmiZhLV-pRCYlS9YIYCSvHCnbfaIZAbTajHoBkJebS-nU9Pu1H5C5vrDCNNATebRRs1VKPjNWJg1ZhShSS55gjSRINFo6ISc_mR6CVpx505_OCRPXDh5pK7KFZxq50g-upspQRsRIQabTscvHtkYKHh5Ytf1UcZhoUxCi5fkanRaZGyUfsoP1KiYZR2xE", "geometry": {"location": {"lat": 33.8940618, "lng": -5.563529099999998}, "viewport": {"northeast": {"lat": 33.89408645, "lng": -5.563479800000001}, "southwest": {"lat": 33.89402145, "lng": -5.563609799999999}}}, "place_id": "ChIJM7qqY9VaoA0RSYEbN64ox8E", "vicinity": "Derb Zemouri, Meknes", "scope": "GOOGLE", "id": "3c5954b6932fa61c9b32ebb19ce08279e7c18b24", "types": ["pharmacy", "health", "store", "point_of_interest", "establishment"], "icon": "https://maps.gstatic.com/mapfiles/place_api/icons/shopping-71.png"}, {"name": "Pharmacie Dar Lakbira", "reference": "CnRoAAAAQGEn2e58HF_9bj5Ur09ZT57_U6aHo7f5bq1ccmehkw1gkNVVC0BHY348mBn401yVmxOkFMTPlmXbJeWDUA4rxSrfpETAxVpO2yYv9qX_Ouc1RxVdUtkOQ3Ph8B22apCXJNI5S8l4ME9UgIub0fjNMhIQ7AuOOl0mKggSHup2-JedkxoUOZW-qenNZTOZ9UHWwUQ7HPjbALE", "geometry": {"location": {"lat": 33.8906169, "lng": -5.561973500000001}}, "place_id": "ChIJowFIzNRaoA0R608-OFNu9kY", "vicinity": "Dar Kebira, 109 Derb Hay El Amal Sidi Amar Lahcini MEKNES, Meknes", "scope": "GOOGLE", "id": "41a1d032c22ec0e1be9a7feec0e4ae4221ce11a1", "types": ["pharmacy", "health", "store", "point_of_interest", "establishment"], "icon": "https://maps.gstatic.com/mapfiles/place_api/icons/shopping-71.png"}]}