{"status": "OK", "html_attributions": [], "results": [{"name": "Post Office", "reference": "CmReAAAAe-t2Xu3u0lHHUEbHAPuh_5Ow5GC0Fpo5hzde8ZX5ojOS_cvT11yV_7tBvH2C1XlOK9wovVMzm_Iso0WxalNrDVGW6vrUMGU9QoPAdIZw_9Si7wfJP3HTZhGQrcSfwUGDEhAPYWEIdPnyYDJGp4yeS2-AGhSfQarsencnT6CEx_7EZroDgL85NQ", "geometry": {"location": {"lat": 34.23872789999999, "lng": -5.735652600000001}, "viewport": {"northeast": {"lat": 34.23877554999999, "lng": -5.735613550000002}, "southwest": {"lat": 34.23858495, "lng": -5.735769749999999}}}, "place_id": "ChIJ52VS04OHoA0RSSHDjEGAiww", "vicinity": "N4, Sidi Kacem", "photos": [{"photo_reference": "CoQBcwAAAPEeRKfOD6OfvghpIo1K6UR7E2PfskSAaIpuPgLU-YQYuOAEExLaLjVMO8OVSuGIDYmCdI1yiId6jI1p3iRp3Hkhv8yEwnNjl_l_N_-UgKr8_uuPa-S-l4Nkca5_THvsQT-r2A9zylrswGKxDYeIfKEvKFfV0AZ8XdgnKHhN9cF6EhDipNgpXNS4vWtUn6tu30vNGhTIzvVaEFLanR4bTBveNOB9P_H3mw", "width": 400, "html_attributions": ["<a href=\"https://maps.google.com/maps/contrib/107089331748879326878/photos\">Ahmed Elhajli</a>"], "height": 300}], "scope": "GOOGLE", "id": "a28a96d7ee655d89e2494c58a1f4fef77892d692", "types": ["post_office", "finance", "point_of_interest", "establishment"], "icon": "https://maps.gstatic.com/mapfiles/place_api/icons/post_office-71.png"}, {"name": "Poste Du Maroc", "reference": "CnRhAAAAZpSl0EVkoF4FHByN9iYHLjn20_XLODEMeUIH9Ex8dNvQ68_n_xLket7nPhotVTn0UaWMKvI58APhwBa1xp5US4ExhX3umL7N2Fz2UPZA__jB1ZZiD_Fjj1Qs-g2LngiVvHZ8EcB7jwJOjmmNUrLK8RIQqsGkJGjQgM1VkNLYm0KnWhoUipe48M7cXTeKIZxlz2Z6qCtbpJI", "geometry": {"location": {"lat": 33.9752503, "lng": -6.013411}, "viewport": {"northeast": {"lat": 33.9752768, "lng": -6.013170400000001}, "southwest": {"lat": 33.97517080000001, "lng": -6.0134912}}}, "place_id": "ChIJjQYnXRDroA0RklbcTZG_Ui4", "vicinity": "R409, Khemiss Ait Yadine", "scope": "GOOGLE", "id": "a227c999811016a5577bd267431872badf9cb9c0", "types": ["post_office", "finance", "point_of_interest", "establishment"], "icon": "https://maps.gstatic.com/mapfiles/place_api/icons/post_office-71.png"}, {"name": "Poste Maroc", "reference": "CmRfAAAAYoq7kIGKQdmPz-sH8igvAdSn6tf5wV_Z_a1Kw52NBMQPREVwJPYqT6j2soVFmckZEeSFzKe-X1i8tyqlSemU_p0EybIkjIUAP6b5Bw-Py6Kl_dPUx-ZS-YOoMsiwqJerEhCUNZF9ZjP_7_W8-UV-48IQGhTERX4JcI9R1Z5X0DA4jII4b1k3ug", "geometry": {"location": {"lat": 33.8246, "lng": -6.065195399999999}, "viewport": {"northeast": {"lat": 33.8247482, "lng": -6.065142750000001}, "southwest": {"lat": 33.82455059999999, "lng": -6.065212949999999}}}, "opening_hours": {"weekday_text": [], "open_now": true}, "place_id": "ChIJyzCUSv7noA0Re_cmkysZmLc", "vicinity": "N6, Khemisset", "scope": "GOOGLE", "id": "011d242f20a5f2fbe6d9c8dc636bfd8425410338", "types": ["post_office", "finance", "point_of_interest", "establishment"], "icon": "https://maps.gstatic.com/mapfiles/place_api/icons/post_office-71.png"}, {"name": "La Poste \u0627\u0644\u0628\u0631\u064a\u062f", "reference": "CnRoAAAAtuslWXK6QpuvibGQZXx394ct6NRX88_3l7M5yKIzhmr-vT_HtVZS8mIHpjy3lCnlo1jJclVeDkSndZbwBz_PiNI2fTkq8WX-1HupmdqmBsYISdkn2k1TD8B3xNb86Bn5zo4sCZmSRLpvIrhUanQuBRIQqR2O4jEqTzDMRD5wV59i9hoUVsKlA9aAVsrqWn4kIJ5K7BMSsgw", "geometry": {"location": {"lat": 33.824907, "lng": -6.0717628}}, "place_id": "ChIJg8wHx1TdoA0RnrhykFUaXUc", "vicinity": "Khemisset", "photos": [{"photo_reference": "CoQBdwAAAFUjrfAQanYrLn4PIGtjD0W6kRhKkNkHVU04u5HHLXj2P7fVanyzMzJSbOTX-KImucfqCPCvuO9o8zq3z2u704uuEI883rAYit8wyQ2pGEPZz08-4jGSr4qDNeGQq085NlIrIjoJWq91Di1BVODzsNEQtjvSJ0-8P_TC0W5mOiwTEhAXATFoBj77GQktD4NTFuFNGhSypB72lzic0yMRXzcUlmE6xNkwTg", "width": 3840, "html_attributions": ["<a href=\"https://maps.google.com/maps/contrib/101304866436933975778/photos\">El Houssaine Boudouh</a>"], "height": 2160}], "scope": "GOOGLE", "id": "bae083348e670239eb0caf13de8457395214fce2", "types": ["post_office", "finance", "point_of_interest", "establishment"], "icon": "https://maps.gstatic.com/mapfiles/place_api/icons/post_office-71.png"}]}