{"status": "OK", "html_attributions": [], "results": [{"name": "D\u00f6nerix Fast Food", "reference": "CnRmAAAAMTLvmR1iU4JL3G5E0pls-EvRKPz_Zzy9hUbLMlCyj4rJ1ZDc9-aN-1KDbNqQdvEFzQIazPb28j_TKdtS0l0W_tk0ojii15oO_6MTfgfnZle_QeqSnM5CcbyD5J31kbx4mZuBMYlATOyrBrNAzRDiYxIQr2usJ90BwQlaNmEHHnJbcxoUb0MC6Nqd852259hrtwgr0Yp3Abk", "geometry": {"location": {"lat": 33.89734759999999, "lng": -5.5471274}}, "place_id": "ChIJD63M3dhEoA0Reae7huFsYNo", "vicinity": "Hamria, Mekn\u00e8s", "scope": "GOOGLE", "id": "c1b7b03a79240fa56c15b39a31031522af205313", "types": ["restaurant", "food", "point_of_interest", "establishment"], "icon": "https://maps.gstatic.com/mapfiles/place_api/icons/restaurant-71.png"}, {"name": "AMAZIGH", "reference": "CmRaAAAA2btt0-d_tRDAXLS6SVrY30a5ZVV_uvp5YIpGaPl_XIJhRg-xYGcRxAdeRacqak_z6PWn0InyyzQRMwbRNZbBqpNZce4QFKGF1Xejkp6Og31Ge01SDncaVnn7rXHOAAZ9EhDXC90kwYWK49CzO2nHNhu1GhRUGzYrj1LFSdVEaQqwritl1McS1A", "geometry": {"location": {"lat": 33.89681970000001, "lng": -5.5465776}}, "opening_hours": {"weekday_text": [], "open_now": true}, "place_id": "ChIJETlCz9hEoA0R68bDEHa45So", "vicinity": "Hamria, Mekn\u00e8s", "scope": "GOOGLE", "id": "0e9d0a1fefc1357bfdb1f1c85395f1e1c6ca361a", "types": ["bar", "restaurant", "food", "point_of_interest", "establishment"], "icon": "https://maps.gstatic.com/mapfiles/place_api/icons/restaurant-71.png"}, {"name": "Cafe Restaurant Idrima", "reference": "CnRpAAAAmJSnI4yNHNee0x8j6yGB6EVdMWUeun0wnkta913po9SOZHcG5XpMxBxjueTIGRxQNh194QLCcCv2vehNvXYAkR9-asWPOgiCmbT1UAf8maR0-ldnIVtIu_zBgbiCNda2PPM9k6sv2_c-X3nJaZaT4BIQr6xeybuz4ogJ9xsI67Fh2xoU0rmlLlm-mzSUO9uYSIlUO700A8M", "geometry": {"location": {"lat": 33.8979721, "lng": -5.5446692}, "viewport": {"northeast": {"lat": 33.89799565, "lng": -5.544632049999999}, "southwest": {"lat": 33.89790145000001, "lng": -5.544780650000001}}}, "place_id": "ChIJt0Lf395EoA0Rb2BOvjMVvCE", "vicinity": "Rue de la Voute, Mekn\u00e8s", "photos": [{"photo_reference": "CoQBdwAAAAvCNrBnwSS7EexAzdAjCFAYtC41ugGbEiNJdExAZZxsChhp9Lgr9s-rjt_nBDAvyFkwekXJXyz8XrfIr0vlC3tChEs3sHxbEp5wKGKH_OwG4kN4VKnzXoUVCDzBW5te4AuTCZK-L3iyFXMHGW4nG0HA-bfOCXZaM1YM5XUshuB4EhDLCRnb4eze_g82IwM0EvL8GhR7eJq2Lvv0Hr2s_Wgn54VMeEi0Fg", "width": 3096, "html_attributions": ["<a href=\"https://maps.google.com/maps/contrib/116876928721841444114/photos\">Jawad Adioui</a>"], "height": 4128}], "scope": "GOOGLE", "id": "c2ce23238c13d4256a534d7d626a17f85c7eb5e0", "types": ["restaurant", "food", "point_of_interest", "establishment"], "icon": "https://maps.gstatic.com/mapfiles/place_api/icons/restaurant-71.png"}, {"rating": 4.6, "name": "Hiraa", "reference": "CmRYAAAAsQIjU3wGXIe5BGGDvd0kzFw76_GT9-0ywlmoR6JAPUhv7Qs_xIAvKIVYHUxTYp_Lj3HrGVaOV-DbLMuZ4cXhwLf14cuTHAqPAzZzsxsuG2FyKn1c3AkCZ_vonPLEkAAAEhCJWNpg1xlS34TjIipfVjlkGhTfhLMQvE_n9wI7EiuyR4pZh16DVw", "geometry": {"location": {"lat": 33.897428, "lng": -5.545891300000001}, "viewport": {"northeast": {"lat": 33.89745395000001, "lng": -5.545845450000001}, "southwest": {"lat": 33.89735014999999, "lng": -5.54602885}}}, "opening_hours": {"weekday_text": [], "open_now": true}, "place_id": "ChIJ7bhS09hEoA0RDoECg_hEIhI", "vicinity": "Rue Settat, Mekn\u00e8s", "photos": [{"photo_reference": "CoQBdwAAAMpJwQjmTxQgiJXzBayrlaIZffvRp2jbhmdoc3oB5VxRU3fT7Pjez5Bu95OuUD_D8EumOmWNHLDI-k7uziG8gAfwCQRiHPQZJlMrrOUz27sog6fQHPE6vD-iIKVME5oQPwpAt01MUdMZukCKHWDhq3AU60eL8MqDaIkZoOzr2kblEhDLrb__Z7vOAU8_y5In3kFTGhQAcJmgsuS1_bVrTFA2gFlYrc8gjw", "width": 2048, "html_attributions": ["<a href=\"https://maps.google.com/maps/contrib/117949377876352911518/photos\">IMAD TOUZANI</a>"], "height": 1536}], "scope": "GOOGLE", "id": "1d3ec0f514009c2e731444504da5d3ef86f2072e", "types": ["restaurant", "food", "point_of_interest", "establishment"], "icon": "https://maps.gstatic.com/mapfiles/place_api/icons/restaurant-71.png"}, {"name": "La Grande Boucle", "reference": "CnRkAAAA5giXcf6t0V1Mhmu-zs0rrT4aynTcmx4QT6mvu2j71K-Y4JzQ7xBNnvck097e0i07ouVIKfBC8CQEj2i4m7Jqu_B5_DtxL221J2CAnICc60-0fqPWdQjEoBAGaWVv7owCslR86CKMTiQdkzEPzfi1kxIQEhgo6O7eiAqSIyRMpyipsBoUz9_QRtlYBJQmtcvxPeO2vpupHG8", "geometry": {"location": {"lat": 33.8998788, "lng": -5.551912799999998}, "viewport": {"northeast": {"lat": 33.89991045000001, "lng": -5.551877049999998}, "southwest": {"lat": 33.89986825, "lng": -5.55202005}}}, "opening_hours": {"weekday_text": [], "open_now": true}, "place_id": "ChIJ91IiTtdEoA0RjR2IX_XE5tc", "vicinity": "Rue du Sebou, Mekn\u00e8s", "photos": [{"photo_reference": "CoQBcwAAALcUISCpvxEcSLGuOXQMbykQ0qsxo_S2Swft8IyhriqWmfzIDHQVsUGj2SXf4Cr7MWQVs7gu8xXiFoh3FRvMRsbapsXCPXh0i81rNJ4sf3UrnD7xeSFHz4U_QlHGEl4hCvRZl4W8200_6uSa2ojJKxAviV0hJUMILIF5FxUn_4c6EhC5OdHuebYWf-HLPv36E33iGhSWriODnFM9ZwlBfq25b1HmH0VgZw", "width": 1836, "html_attributions": ["<a href=\"https://maps.google.com/maps/contrib/117905485421932083327/photos\">essaadi anasse</a>"], "height": 3264}], "scope": "GOOGLE", "id": "15eaf02b94daa2493970dc26648aa9ebb1ee90a7", "types": ["restaurant", "food", "point_of_interest", "establishment"], "icon": "https://maps.gstatic.com/mapfiles/place_api/icons/restaurant-71.png"}, {"name": "Snack Et Poissons driss", "reference": "CnRrAAAAMz_Afu74cn3-ZLwcKy2IWQNe0WW6wJp5IGDMJo75rF2tM-S0KDJic-6nunKkDp3skCwsZW3GMi3_lCsBHLtjx08sFR9OCtuYpQViMTq8xBevCjOyPoXAw3F8loPY5r1LOixuUc-qU5X58npYzpHyuRIQDFrrdCXh3sUG72QTCyWJmhoUmFgybsLgIfdH8NYScKx8EOo0-a0", "geometry": {"location": {"lat": 33.89746890000001, "lng": -5.5438923}}, "opening_hours": {"weekday_text": [], "open_now": true}, "place_id": "ChIJDQSCU99EoA0RXjy1R9nZAME", "vicinity": "36 rue el amir abdelkader, Meknes", "scope": "GOOGLE", "id": "27dc6a19238ccbf53409a43afc59b5ee833b2197", "types": ["restaurant", "food", "point_of_interest", "establishment"], "icon": "https://maps.gstatic.com/mapfiles/place_api/icons/restaurant-71.png"}, {"name": "Restaurant La Belle Rose", "reference": "CnRrAAAA2_gRuQs20Jnu9dE1-smtlgKrNTxehHRI6y_i6GT89b3RL6nsH4ibN9Fyp3MHDPUI3a3SjUUnx3HdQLVxf6_4-h3Zn1YPY_9ja2imB-lXw2J2dEhppmk7sfbgLiJvEtQi9TMsSjOsNpvyC49wJoBdpRIQgIBnBGzUfht6Jo8avMemEhoUbNSZdXYFKyrf1wel2Mk1eo0KxM8", "geometry": {"location": {"lat": 33.8983363, "lng": -5.5513511}, "viewport": {"northeast": {"lat": 33.89834685, "lng": -5.551315349999999}, "southwest": {"lat": 33.89830465, "lng": -5.551458349999999}}}, "place_id": "ChIJSc3cYtdEoA0R0AKji1m-q0w", "vicinity": "Rue Kenitra, Mekn\u00e8s", "photos": [{"photo_reference": "CoQBdwAAALhRayYDVadHm0TtAmT3wX6JRJYAX6UXFcFlT2BTJY_9HuR7dkdBUZqg6l-9xokhnqlvSO5LF0c3vKukUhnnzmDDqNdlF39G0qQv7Yont45q0LW3q3Hdrtov4YLL8eMQDKn5SuGTXdqK1U5i9Z4coLq8UCo8OuLNEgwqni060GE4EhCo2Xx8nmM5pe3BecnfOcPaGhTLijWSvWn8z2QOWAMfmNtel1z_0Q", "width": 4032, "html_attributions": ["<a href=\"https://maps.google.com/maps/contrib/109751459823249105600/photos\">Anwar Benny</a>"], "height": 3024}], "scope": "GOOGLE", "id": "b663ae5923f607f77b2fef8e42c85e074769aae9", "types": ["restaurant", "food", "point_of_interest", "establishment"], "icon": "https://maps.gstatic.com/mapfiles/place_api/icons/restaurant-71.png"}, {"name": "Bestway chicken & pizza", "reference": "CnRqAAAA4DUnf3MJBhEoXZwFBnY3lxeFSoez7Aydz85Jz-n9l_RBps1Ud5Vm5BYTeRY295Hevk-sMXfnkDdhE3lomDSjNrj3Mn5gNMzQL-XFjNNEc26_bhzbBOVVJ2Rb1F4vegdKEoULbBiU0xW7ZYVsJIozshIQUmTU41_HbSPbUTtu9mqPVxoUP5QgWfBnL2ND4IDFY3YOnZLhOCM", "geometry": {"location": {"lat": 33.8989558, "lng": -5.551793099999999}, "viewport": {"northeast": {"lat": 33.89901870000001, "lng": -5.55175945}, "southwest": {"lat": 33.89891389999999, "lng": -5.55184365}}}, "opening_hours": {"weekday_text": [], "open_now": true}, "place_id": "ChIJn95gXddEoA0RNBtFyXtgOgI", "vicinity": "N 22, Avenue Hassan 2. Ville Nouvelle. Mekn\u00e8s, \u0634\u0627\u0631\u0639 \u0627\u0644\u062d\u0633\u0646 \u0627\u0644\u062a\u0627\u0646\u064a, Meknes", "scope": "GOOGLE", "id": "f526cf24fc49eddddda98009fe86d072f1eb429b", "types": ["restaurant", "food", "point_of_interest", "establishment"], "icon": "https://maps.gstatic.com/mapfiles/place_api/icons/restaurant-71.png"}, {"name": "Caf\u00e9 Baobab", "reference": "CmRgAAAAlmU1fm2M_86OUyvMxWN8dtiy5Y0HvGBXDvqrVU-8YMEeo_bIvPLVTNwmIrC2IqQDeoQ4KKiwYZFF0VQmD27WFN1LW-6dwpNmHSGj3IkkdoDQ4YAhHTlX2-f7PKHlaUXTEhD05X1aTlePeY-3ti_vQbHFGhSmIKTUqExYqIQrax9hUXHvf_mjZw", "geometry": {"location": {"lat": 33.8986954, "lng": -5.5413409}}, "place_id": "ChIJvUb3L95EoA0RldgRetKZqvU", "vicinity": "Hamria, Mekn\u00e8s", "photos": [{"photo_reference": "CoQBdwAAABUFydbzbD5vY1f6dss60bou5yPOMlreHbeUaOZOOboe2sR8WhzCQgVBVgyVqNIbwGeXUZsvuQ_-ygKGo-hGj2MFTjIyFOCKuZhFNBbRePOtzHj67OcIZAUEnnka80dhaxrerWAGSBPRbznmnGZEEb5c5NtfqtvmoidKU5DlVnQcEhAwwkJeBMgV4UAe7jQm3jGeGhTNZTfKoOtnkCeBIOWqwlVR_5R7Xw", "width": 2576, "html_attributions": ["<a href=\"https://maps.google.com/maps/contrib/111492169501852934512/photos\">bachiri anas</a>"], "height": 1932}], "scope": "GOOGLE", "id": "c33329f021ca3c5a24d6f70dac8c78e3144a9c02", "types": ["restaurant", "food", "point_of_interest", "establishment"], "icon": "https://maps.gstatic.com/mapfiles/place_api/icons/restaurant-71.png"}, {"name": "GOLDEN REST", "reference": "CmRfAAAAEP4gXMEiHo1SO3mBfyXdzQTyUvW90exW4g87BZFRId9vtVSoHkFz566yu0xCGNyCC1zvPV9TckD0bZZ-e4kSKSNmWnT4WEGQ_LgTN9z0C-JMK84od9v02ClrpGVnneQ5EhDMaIjyIMZBLDM8iLFV-A-fGhRHHEz5WwA0x4yg8LaUS4JFd4je2Q", "geometry": {"location": {"lat": 33.894891, "lng": -5.547107999999999}}, "opening_hours": {"weekday_text": [], "open_now": true}, "place_id": "ChIJa1MLXydFoA0R-AKN8kAXyqM", "vicinity": "1 Rue Kiffa AV des FAR ville nouvelle, Mekn\u00e8s", "photos": [{"photo_reference": "CoQBcwAAACIbSgLjY_nLV1xH6_aNu8HdPVyZCPnG9fDgO3at6rBzTchqYIJbaZvYNndX54Ami4d3iUGpDsa5e8hbAN_Qmqb3xYWOSvmJP-YE3yXDziIqzmilQDkIjJImkr7Ch6O8MP-MklEIijXhHcD2oN-nWS_Uthc8QldKEA2Ay2x741hwEhA_Qp-EYnI4yssy_60irkgbGhSVLLsKYBd7A1qSeghjEVRgjfisSQ", "width": 361, "html_attributions": ["<a href=\"https://maps.google.com/maps/contrib/102700299399986124294/photos\">GOLDEN REST</a>"], "height": 369}], "scope": "GOOGLE", "id": "e706211eb53c94aae2702c4f582cf67e22bbc253", "types": ["restaurant", "food", "point_of_interest", "establishment"], "icon": "https://maps.gstatic.com/mapfiles/place_api/icons/restaurant-71.png"}, {"name": "Bar Imad", "reference": "CmRcAAAALubl31MfTtgB5oa24TXzUPyIKkSiHkzfDKLRM9SbQ32eZO8u3FrdxXdKdcdEazUoOSrU4XbmsXD-47Q3afHheUsqd6cq_fKYo5riAA6j92D5L16VeJwMja0sJL06vNVzEhDxFeKZ49xRka8eNc-7MvCbGhQ4URBplDBOPXzqIPJ4Jlj38CiKXQ", "geometry": {"location": {"lat": 33.8952078, "lng": -5.5426294}, "viewport": {"northeast": {"lat": 33.89524600000001, "lng": -5.542560700000002}, "southwest": {"lat": 33.8950932, "lng": -5.5426523}}}, "place_id": "ChIJxdT4dyBFoA0R_2dyttl1-_c", "vicinity": "7 RUE ABOU AL BEN RAHAL, Rue Abou Al Ben Rahal, Mekn\u00e8s", "scope": "GOOGLE", "id": "21a22d72f3a4f1ecfa7ee0865be021196a196c57", "types": ["restaurant", "food", "point_of_interest", "establishment"], "icon": "https://maps.gstatic.com/mapfiles/place_api/icons/restaurant-71.png"}, {"name": "Palais Terrab", "reference": "CmRgAAAAylwINtRHQ5U7Le7FwAk6D6Q9mBqSxo1iQSTL-gJW6_BFuGqMCfWXPyX6qPRkHkaeD7T3tgL3XPlEQHkHelk83wPqoal9WNMMjZygFmLFj9WRCMln9mBY1gnKeBvuHrwoEhCuFpu-XPl_H9gXsWkNp3lLGhSt9nIR79yT_i5wJzgRmRSR46imYQ", "geometry": {"location": {"lat": 33.9020305, "lng": -5.540032800000001}}, "place_id": "ChIJ84UxQ-dEoA0RIeL-olnK73Y", "vicinity": "El Menzeh, Meknes", "photos": [{"photo_reference": "CoQBdwAAAE2iwJG8msI_npdxcz6vXAjg8x-8EyYoFIe2pCJxa-Ebdk_0CRCi_c4LHiUKSKBCN-WYI1VpYFfPsG20letp8yhzZki7CwLND2c0950FFCKfLrgXVfpt7RDusPazvmiim29RW3__c_tNXvhW_KGhdIybTEMUkGEQdwc-wFbNBuPpEhBeXuog68BZPgBTy6UzJeNMGhTask1lIr4pzNPKKs2YbXorvW40kA", "width": 4128, "html_attributions": ["<a href=\"https://maps.google.com/maps/contrib/113319980435100363410/photos\">Fiena Zulkamar</a>"], "height": 2322}], "scope": "GOOGLE", "id": "3028b7be68638a460f4063f82843ca3fd03c808b", "types": ["restaurant", "food", "point_of_interest", "establishment"], "icon": "https://maps.gstatic.com/mapfiles/place_api/icons/restaurant-71.png"}, {"name": "R\u00e9sidence Marmara", "reference": "CnRmAAAAO0ruYKc89t4unikZ9Pdm3RjLSBolLtKoxpslJrSZj-bt3Z7mQt07UabEiKIRQCbB816ST71hV3gd_uMVTyW10HlgvhCV6tZVPhU_mGjaWTZRtgq90EMo8Ku6AxAkC9Td3sGjceE2lAuPpBMZQ9yuuhIQHZbfrGZkKE9_qL7VLz2nExoUFnmay3jj7xOpaNhS2OSF5LHgxA4", "geometry": {"location": {"lat": 33.9003253, "lng": -5.538228900000001}}, "place_id": "ChIJzx-Y1-BEoA0RBhOCnXcK3ao", "vicinity": "Avenue Zerktouni", "scope": "GOOGLE", "id": "31bdf9ff2a5319c643202829af2abf2e3e5befb0", "types": ["restaurant", "food", "point_of_interest", "establishment"], "icon": "https://maps.gstatic.com/mapfiles/place_api/icons/restaurant-71.png"}, {"name": "Tic Tac", "reference": "CmRbAAAAAAIhNJkLqkNEAZoXoir8bg3_QZurHE-upVNwDEX67uVNKgUzDd0jWqTdjpk215IB-GMZQJnCPkUj-d0Xe86MVxKLV6gRKPCjbvRfltxBcDu1SIux2VyoxJiJacuPEdb5EhD9M4Cy_rWAvz05UpfFH1T1GhSzoVvr5EUjtR7FxTiN_WX10Ev0Mg", "geometry": {"location": {"lat": 33.9070382, "lng": -5.541084799999999}}, "place_id": "ChIJIRRRr8JEoA0RjuqCgrqGaO0", "vicinity": "Hamria, Mekn\u00e8s", "scope": "GOOGLE", "id": "2081cc8d3a7a4f4f42e6c5b0c8ee36bd7fac8808", "types": ["restaurant", "food", "point_of_interest", "establishment"], "icon": "https://maps.gstatic.com/mapfiles/place_api/icons/restaurant-71.png"}, {"name": "Snack AlAbrar", "reference": "CmRgAAAAcnTpv_qVDl5fD5ktxUxVM9RFstG1S-d4a9qE8lYwaL5cKoDuqSgzpJNJvIAq9Nc_ZWWEv5eJ4FX_lkGML3vL9ybdn88GLI6X-lItPGYse8IuhunYNKVmZPpI6npCAIsVEhCzcWnEaNRA6vTdQtbQrCG5GhTEO_-1sUG6W2V9khU9Vjq3Q_LNyw", "geometry": {"location": {"lat": 33.8935781, "lng": -5.541186300000001}, "viewport": {"northeast": {"lat": 33.89360745, "lng": -5.541135200000001}, "southwest": {"lat": 33.89349005, "lng": -5.541339599999999}}}, "place_id": "ChIJQ7-ZIyBFoA0R2pDGZd_pXgk", "vicinity": "\u0634\u0627\u0631\u0639 \u0646\u0647\u0631\u0632, Meknes", "photos": [{"photo_reference": "CoQBcwAAAFXztHFuFx8JpTTIL0Ar1MDNST_K4IZY0rg4zB8cqiWO05tJdYj-XGa6wNLErJoohU04I3mzSBUhnIGuWoxTUhBRRiavlza9erkPRezfQXvBkrtE2L4HV0yigdgeK6XNhpR7ICZ6t9lott0ga23fKsNg0UFdxZ4J-l7wy5ZNPpG_EhBbCl27zK_G_jgl1ZPK5H-WGhQk0DCCryeudwC29ZtYyj4UYcTeyQ", "width": 1024, "html_attributions": ["<a href=\"https://maps.google.com/maps/contrib/107998740897309528262/photos\">Dadem LC</a>"], "height": 614}], "scope": "GOOGLE", "id": "5d25016fc4f7ca88f3589cc46d43f9b7c41fda8e", "types": ["restaurant", "food", "point_of_interest", "establishment"], "icon": "https://maps.gstatic.com/mapfiles/place_api/icons/restaurant-71.png"}, {"name": "Snack EURO", "reference": "CmReAAAAbCRkrdaw5EyYDM8b4hQKGpKcLZxNoU9U8kAMnJ7emFGs3q9B1fzfRWVd6rxbF3QdINB2Zbc5lvZ_XIiSH_rNi77QY6ue0q5SDPNzzc4cBp-LjzUyMxZUFzqlsXiAPCUBEhCxNbsZ0apqCQa3bq6By4jsGhRUJj9q4IejKLE0UXak_5lkcBimRg", "geometry": {"location": {"lat": 33.8933955, "lng": -5.5409999}, "viewport": {"northeast": {"lat": 33.89343149999999, "lng": -5.5409373}, "southwest": {"lat": 33.89328750000001, "lng": -5.541187699999998}}}, "place_id": "ChIJPXaRJiBFoA0R5JP7oMggkPU", "vicinity": "Avenue Nehrou, Meknes", "photos": [{"photo_reference": "CoQBcwAAAIfZa5pcaC_sXsJe9jL1R8j1cTkfXkL3DABBcsYhPst2AHkAEG4L1SSCp-c7BFkgtT-zGHSxbNnpBTNSgx2CadIp5rowBYG7uFwAoGS1gWSFhghIxwNH-oPQatZ1u8fd3rg_5g66txSH6k3vgZd6BT0BeRxsvv4IL8xr6bx9y8UJEhCNB3_fEGqGPI6AHi92CcAJGhTHwnqaQekKN-APeB1fHFONoEYZzw", "width": 1024, "html_attributions": ["<a href=\"https://maps.google.com/maps/contrib/107998740897309528262/photos\">Dadem LC</a>"], "height": 614}], "scope": "GOOGLE", "id": "6aeca7f449c8282dc91ae22684cfe732f723dc74", "types": ["restaurant", "food", "point_of_interest", "establishment"], "icon": "https://maps.gstatic.com/mapfiles/place_api/icons/restaurant-71.png"}, {"name": "Snack Miloud", "reference": "CmRfAAAAV0qk5R97g1pJWPBCITgwSgGoqlAu3y828e9cjo0n96w_2RV2xvopeWuA_rkwG-DpjpoVs3GbEiQ_txPbhdcnNATSnQ71vEBNqhRLkNX53X4uWS3PTjACvDE1aFUEt2z5EhAOhOfWzmlcmrQWEIijHoi2GhRXcc8k6W63smyNpVHx6Pe0tmL8cQ", "geometry": {"location": {"lat": 33.8927342, "lng": -5.5407035}, "viewport": {"northeast": {"lat": 33.89277869999999, "lng": -5.5406259}, "southwest": {"lat": 33.8927071, "lng": -5.540750699999999}}}, "place_id": "ChIJ5x6ZgB9FoA0R1XpL-rzailU", "vicinity": "\u0634\u0627\u0631\u0639 \u0646\u0647\u0631\u0632, Meknes", "scope": "GOOGLE", "id": "f2cc963558f7745e129e3bb9493084f687b24905", "types": ["meal_takeaway", "restaurant", "food", "point_of_interest", "establishment"], "icon": "https://maps.gstatic.com/mapfiles/place_api/icons/restaurant-71.png"}, {"rating": 4.3, "name": "Pub Relais de Paris", "reference": "CnRmAAAAHXchXDllb1tIR3u-MXgNa8qXaxQWs_DzjlUfywidR43H9EozIJ0Z0FVAuXvVTI5IFYvWfl8G-I45PTSr21ZzdkyXt6ka9HV6pmtaAXkOI_iCFvDxubIp83x64Nx8PH9ZLrfK0biaWZtG86eXiu7skhIQ7Fbh2WraJX3dnSXAiiC0uhoURQ1KGEln4v5k9kJffw23ZmDl5Vc", "geometry": {"location": {"lat": 33.9038064, "lng": -5.557354699999999}}, "place_id": "ChIJE8i9O9JEoA0RTbsfBTj4ZjM", "vicinity": "Meknes", "photos": [{"photo_reference": "CoQBcwAAALEO_ZEbV8qBaB-G2Oxsbkd_lKzdWZDf6dDgc5o3VN3mlQ6fk5ZB3ssP1WaqUJ168d0khg8FMEvvbyz2zXrPwF7vKUejat2EGZ_qcB1aSLMPJBLU-Hq5_dVUn7uUYHG1h2Aa0rb9fGl14jKCNZAPoUJX550j4wz_92sOLYj0Ok-nEhBBItfOWof7cGGrXnLyf9ukGhRG6z8LFKu45yTT3-gpRX5KoB3eHw", "width": 3200, "html_attributions": ["<a href=\"https://maps.google.com/maps/contrib/114858022518490801170/photos\">\u80e1\u660e</a>"], "height": 2400}], "scope": "GOOGLE", "id": "279dc1800c3ce27e39e9251658a6b4f64739374c", "types": ["restaurant", "food", "point_of_interest", "establishment"], "icon": "https://maps.gstatic.com/mapfiles/place_api/icons/restaurant-71.png"}, {"name": "Morocco", "reference": "CnRsAAAAyRmhPzklAnQ8Dneyp1zl6ASYo8Pis7MGX5edleAu3BMrF1H6QykMBXbbO6TOY2Rcb081cIlGfV2vb9ATs-6iw2WB1x6iONdQOkPPpA3p_4QnSh0qHgSJEW2ZuCa3YZ6pOaXdgRVQM5hGx6bCngYzZBIQt_eLvXovECenSN7I_SfzOhoU-Q3eIpDzlw7BRRC232Uz12XsGPQ", "geometry": {"location": {"lat": 33.8922168, "lng": -5.540376999999999}, "viewport": {"northeast": {"lat": 33.8927667, "lng": -5.5401925}, "southwest": {"lat": 33.8920335, "lng": -5.540438499999998}}}, "place_id": "ChIJV7ROeR9FoA0RrJaaU_X8Fus", "vicinity": "Ville Nouvelle", "scope": "GOOGLE", "id": "2f2d599c904f44f869615b0b7477e1cf552b25dc", "types": ["restaurant", "food", "point_of_interest", "establishment"], "icon": "https://maps.gstatic.com/mapfiles/place_api/icons/geocode-71.png"}, {"name": "Boucherie Ibn Khaldoun", "reference": "CnRpAAAAytzSjYaIe-ooNJ-iDiykOabpdb9jUn67Lf47a7MX2iqD7zPV_VMBdFmiCjCqSNUSdN3tLuoX9X-__jqWepDVKFaOwYXQN3LHQaC_y4KhOwosclrt48nXCsroq6BVv_xLtn2LkgK1lxTGj6JWJUe8ohIQtNT3ZmMiQu_CG5K8KoSa1RoUGf6CVjFr3mOhW0qaEzdrt0DJiVw", "geometry": {"location": {"lat": 33.8934122, "lng": -5.5388528}, "viewport": {"northeast": {"lat": 33.89341509999999, "lng": -5.538760399999999}, "southwest": {"lat": 33.89341030000001, "lng": -5.538912000000001}}}, "opening_hours": {"weekday_text": [], "open_now": true}, "place_id": "ChIJ13bzuh9FoA0RTXHmSVXXZh8", "vicinity": "Rue Ibn Khaldoun, Mekn\u00e8s", "scope": "GOOGLE", "id": "ebfd6088e6254d610c20d5d19cc4c997ee8fe3db", "types": ["restaurant", "food", "store", "point_of_interest", "establishment"], "icon": "https://maps.gstatic.com/mapfiles/place_api/icons/shopping-71.png"}]}